{
"type": "FeatureCollection",
"name": "sites-all-edit",
"crs": { "type": "name", "properties": { "name": "urn:ogc:def:crs:OGC:1.3:CRS84" } },
"features": [
{ "type": "Feature", "properties": { "seed": 1.0, "school_common_name": "Duke", "site": "Columbia, SC", "year": 2019.0, "id": 20190, "school_full_name": "Duke University", "team": "Blue Devils", "city": "Durham", "state": "North Carolina", "type": "Private\/Non-sectarian", "conference": "Atlantic Coast Conference", "distance": 179.76568496216188, "address": "Columbia, SC", "lng": -81.0343313, "lat": 34.0007493 }, "geometry": { "type": "Point", "coordinates": [ -81.0343313, 34.0007493 ] } },
{ "type": "Feature", "properties": { "seed": 1.0, "school_common_name": "Gonzaga", "site": "Salt Lake City, UT", "year": 2019.0, "id": 20191, "school_full_name": "Gonzaga University", "team": "Bulldogs", "city": "Spokane", "state": "Washington", "type": "Private\/Catholic", "conference": "West Coast Conference", "distance": 549.38026430060654, "address": "Salt Lake City, UT", "lng": -111.8867975, "lat": 40.7596198 }, "geometry": { "type": "Point", "coordinates": [ -111.8867975, 40.7596198 ] } },
{ "type": "Feature", "properties": { "seed": 1.0, "school_common_name": "North Carolina", "site": "Columbus, OH", "year": 2019.0, "id": 20192, "school_full_name": "University of North Carolina at Chapel Hill", "team": "Tar Heels", "city": "Chapel Hill", "state": "North Carolina", "type": "State", "conference": "Atlantic Coast Conference", "distance": 352.05289272667414, "address": "Columbus, OH", "lng": -83.0007065, "lat": 39.9622601 }, "geometry": { "type": "Point", "coordinates": [ -83.0007065, 39.9622601 ] } },
{ "type": "Feature", "properties": { "seed": 1.0, "school_common_name": "Virginia", "site": "Columbia, SC", "year": 2019.0, "id": 20193, "school_full_name": "University of Virginia", "team": "Cavaliers", "city": "Charlottesville", "state": "Virginia", "type": "State", "conference": "Atlantic Coast Conference", "distance": 296.23702327237743, "address": "Columbia, SC", "lng": -81.0343313, "lat": 34.0007493 }, "geometry": { "type": "Point", "coordinates": [ -81.0343313, 34.0007493 ] } },
{ "type": "Feature", "properties": { "seed": 2.0, "school_common_name": "Michigan State", "site": "Des Moines, IA", "year": 2019.0, "id": 20194, "school_full_name": "Michigan State University", "team": "Spartans", "city": "East Lansing", "state": "Michigan", "type": "State", "conference": "Big Ten Conference", "distance": 571.48462707962574, "address": "Des Moines, IA", "lng": -93.6037149, "lat": 41.5910641 }, "geometry": { "type": "Point", "coordinates": [ -93.603714900000014, 41.5910641 ] } },
{ "type": "Feature", "properties": { "seed": 2.0, "school_common_name": "Michigan", "site": "Des Moines, IA", "year": 2019.0, "id": 20195, "school_full_name": "University of Michigan", "team": "Wolverines", "city": "Ann Arbor", "state": "Michigan", "type": "State", "conference": "Big Ten Conference", "distance": 616.44693372942572, "address": "Des Moines, IA", "lng": -93.6037149, "lat": 41.5910641 }, "geometry": { "type": "Point", "coordinates": [ -93.603714900000014, 41.5910641 ] } },
{ "type": "Feature", "properties": { "seed": 2.0, "school_common_name": "Kentucky", "site": "Jacksonville, FL", "year": 2019.0, "id": 20196, "school_full_name": "University of Kentucky", "team": "Wildcats", "city": "Lexington", "state": "Kentucky", "type": "State", "conference": "Southeastern Conference", "distance": 509.96862354198532, "address": "Jacksonville, FL", "lng": -81.655651, "lat": 30.3321838 }, "geometry": { "type": "Point", "coordinates": [ -81.655651, 30.3321838 ] } },
{ "type": "Feature", "properties": { "seed": 2.0, "school_common_name": "Tennessee", "site": "Columbus, OH", "year": 2019.0, "id": 20197, "school_full_name": "University of Tennessee", "team": "Volunteers", "city": "Knoxville", "state": "Tennessee", "type": "State", "conference": "Southeastern Conference", "distance": 255.86105866165448, "address": "Columbus, OH", "lng": -83.0007065, "lat": 39.9622601 }, "geometry": { "type": "Point", "coordinates": [ -83.0007065, 39.9622601 ] } },
{ "type": "Feature", "properties": { "seed": 3.0, "school_common_name": "LSU", "site": "Jacksonville, FL", "year": 2019.0, "id": 20198, "school_full_name": "Louisiana State University", "team": "Tigers", "city": "Baton Rouge", "state": "Louisiana", "type": "State", "conference": "Southeastern Conference", "distance": 592.3306578855246, "address": "Jacksonville, FL", "lng": -81.655651, "lat": 30.3321838 }, "geometry": { "type": "Point", "coordinates": [ -81.655651, 30.3321838 ] } },
{ "type": "Feature", "properties": { "seed": 3.0, "school_common_name": "Texas Tech", "site": "Tulsa, OK", "year": 2019.0, "id": 20199, "school_full_name": "Texas Tech University", "team": "Red Raiders", "city": "Lubbock", "state": "Texas", "type": "State", "conference": "Big 12 Conference", "distance": 400.14625910523978, "address": "Tulsa, OK", "lng": -95.9929113, "lat": 36.1556805 }, "geometry": { "type": "Point", "coordinates": [ -95.9929113, 36.1556805 ] } },
{ "type": "Feature", "properties": { "seed": 3.0, "school_common_name": "Houston", "site": "Tulsa, OK", "year": 2019.0, "id": 201910, "school_full_name": "University of Houston", "team": "Cougars", "city": "Houston", "state": "Texas", "type": "State", "conference": "American Athletic Conference", "distance": 401.95899374961618, "address": "Tulsa, OK", "lng": -95.9929113, "lat": 36.1556805 }, "geometry": { "type": "Point", "coordinates": [ -95.9929113, 36.1556805 ] } },
{ "type": "Feature", "properties": { "seed": 3.0, "school_common_name": "Purdue", "site": "Hartford, CT", "year": 2019.0, "id": 201911, "school_full_name": "Purdue University", "team": "Boilermakers", "city": "West Lafayette", "state": "Indiana", "type": "State", "conference": "Big Ten Conference", "distance": 888.45904571705978, "address": "Hartford, CT", "lng": -72.6908547, "lat": 41.764582 }, "geometry": { "type": "Point", "coordinates": [ -72.6908547, 41.764582 ] } },
{ "type": "Feature", "properties": { "seed": 4.0, "school_common_name": "Virginia Tech", "site": "San Jose, CA", "year": 2019.0, "id": 201912, "school_full_name": "Virginia Tech", "team": "Hokies", "city": "Blacksburg", "state": "Virginia", "type": "State", "conference": "Atlantic Coast Conference", "distance": 2577.0866685130677, "address": "San Jose, CA", "lng": -121.8905833, "lat": 37.3361905 }, "geometry": { "type": "Point", "coordinates": [ -121.8905833, 37.3361905 ] } },
{ "type": "Feature", "properties": { "seed": 4.0, "school_common_name": "Florida State", "site": "Hartford, CT", "year": 2019.0, "id": 201913, "school_full_name": "Florida State University", "team": "Seminoles", "city": "Tallahassee", "state": "Florida", "type": "State", "conference": "Atlantic Coast Conference", "distance": 1007.7308678549208, "address": "Hartford, CT", "lng": -72.6908547, "lat": 41.764582 }, "geometry": { "type": "Point", "coordinates": [ -72.6908547, 41.764582 ] } },
{ "type": "Feature", "properties": { "seed": 4.0, "school_common_name": "Kansas", "site": "Salt Lake City, UT", "year": 2019.0, "id": 201914, "school_full_name": "University of Kansas", "team": "Jayhawks", "city": "Lawrence", "state": "Kansas", "type": "State", "conference": "Big 12 Conference", "distance": 1040.1673956607126, "address": "Salt Lake City, UT", "lng": -111.8867975, "lat": 40.7596198 }, "geometry": { "type": "Point", "coordinates": [ -111.8867975, 40.7596198 ] } },
{ "type": "Feature", "properties": { "seed": 4.0, "school_common_name": "Kansas State", "site": "San Jose, CA", "year": 2019.0, "id": 201915, "school_full_name": "Kansas State University", "team": "Wildcats", "city": "Manhattan", "state": "Kansas", "type": "State", "conference": "Big 12 Conference", "distance": 1576.8386110379208, "address": "San Jose, CA", "lng": -121.8905833, "lat": 37.3361905 }, "geometry": { "type": "Point", "coordinates": [ -121.8905833, 37.3361905 ] } },
{ "type": "Feature", "properties": { "seed": 1.0, "school_common_name": "Villanova", "site": "Pittsburgh, PA", "year": 2018.0, "id": 201816, "school_full_name": "Villanova University", "team": "Wildcats", "city": "Radnor Township", "state": "Pennsylvania", "type": "Private\/Catholic", "conference": "Big East Conference", "distance": 290.09282402281229, "address": "Pittsburgh, PA", "lng": -79.9900861, "lat": 40.4416941 }, "geometry": { "type": "Point", "coordinates": [ -79.990086099999985, 40.4416941 ] } },
{ "type": "Feature", "properties": { "seed": 1.0, "school_common_name": "Kansas", "site": "Wichita, KS", "year": 2018.0, "id": 201817, "school_full_name": "University of Kansas", "team": "Jayhawks", "city": "Lawrence", "state": "Kansas", "type": "State", "conference": "Big 12 Conference", "distance": 151.84993570343457, "address": "Wichita, KS", "lng": -97.3375448, "lat": 37.6922361 }, "geometry": { "type": "Point", "coordinates": [ -97.3375448, 37.6922361 ] } },
{ "type": "Feature", "properties": { "seed": 1.0, "school_common_name": "Xavier", "site": "Nashville, TN", "year": 2018.0, "id": 201818, "school_full_name": "Xavier University", "team": "Musketeers", "city": "Cincinnati", "state": "Ohio", "type": "Private\/Catholic", "conference": "Big East Conference", "distance": 234.53676330481159, "address": "Nashville, TN", "lng": -86.7743531, "lat": 36.1622296 }, "geometry": { "type": "Point", "coordinates": [ -86.7743531, 36.1622296 ] } },
{ "type": "Feature", "properties": { "seed": 1.0, "school_common_name": "Virginia", "site": "Charlotte, NC", "year": 2018.0, "id": 201819, "school_full_name": "University of Virginia", "team": "Cavaliers", "city": "Charlottesville", "state": "Virginia", "type": "State", "conference": "Atlantic Coast Conference", "distance": 227.36289571355255, "address": "Charlotte, NC", "lng": -80.8431268, "lat": 35.2270869 }, "geometry": { "type": "Point", "coordinates": [ -80.8431268, 35.2270869 ] } },
{ "type": "Feature", "properties": { "seed": 2.0, "school_common_name": "Purdue", "site": "Detroit, MI", "year": 2018.0, "id": 201820, "school_full_name": "Purdue University", "team": "Boilermakers", "city": "West Lafayette", "state": "Indiana", "type": "State", "conference": "Big Ten Conference", "distance": 268.3406569945605, "address": "Detroit, MI", "lng": -83.0466403, "lat": 42.3315509 }, "geometry": { "type": "Point", "coordinates": [ -83.0466403, 42.3315509 ] } },
{ "type": "Feature", "properties": { "seed": 2.0, "school_common_name": "Duke", "site": "Pittsburgh, PA", "year": 2018.0, "id": 201821, "school_full_name": "Duke University", "team": "Blue Devils", "city": "Durham", "state": "North Carolina", "type": "Private\/Non-sectarian", "conference": "Atlantic Coast Conference", "distance": 283.59304194708926, "address": "Pittsburgh, PA", "lng": -79.9900861, "lat": 40.4416941 }, "geometry": { "type": "Point", "coordinates": [ -79.990086099999985, 40.4416941 ] } },
{ "type": "Feature", "properties": { "seed": 2.0, "school_common_name": "North Carolina", "site": "Charlotte, NC", "year": 2018.0, "id": 201822, "school_full_name": "University of North Carolina at Chapel Hill", "team": "Tar Heels", "city": "Chapel Hill", "state": "North Carolina", "type": "State", "conference": "Atlantic Coast Conference", "distance": 119.27341381584134, "address": "Charlotte, NC", "lng": -80.8431268, "lat": 35.2270869 }, "geometry": { "type": "Point", "coordinates": [ -80.8431268, 35.2270869 ] } },
{ "type": "Feature", "properties": { "seed": 2.0, "school_common_name": "Cincinnati", "site": "Nashville, TN", "year": 2018.0, "id": 201823, "school_full_name": "University of Cincinnati", "team": "Bearcats", "city": "Cincinnati", "state": "Ohio", "type": "State", "conference": "American Athletic Conference", "distance": 231.8792633695019, "address": "Nashville, TN", "lng": -86.7743531, "lat": 36.1622296 }, "geometry": { "type": "Point", "coordinates": [ -86.7743531, 36.1622296 ] } },
{ "type": "Feature", "properties": { "seed": 3.0, "school_common_name": "Texas Tech", "site": "Dallas, TX", "year": 2018.0, "id": 201824, "school_full_name": "Texas Tech University", "team": "Red Raiders", "city": "Lubbock", "state": "Texas", "type": "State", "conference": "Big 12 Conference", "distance": 321.18127519557834, "address": "Dallas, TX", "lng": -96.7968559, "lat": 32.7762719 }, "geometry": { "type": "Point", "coordinates": [ -96.7968559, 32.7762719 ] } },
{ "type": "Feature", "properties": { "seed": 3.0, "school_common_name": "Michigan State", "site": "Detroit, MI", "year": 2018.0, "id": 201825, "school_full_name": "Michigan State University", "team": "Spartans", "city": "East Lansing", "state": "Michigan", "type": "State", "conference": "Big Ten Conference", "distance": 92.148983879504314, "address": "Detroit, MI", "lng": -83.0466403, "lat": 42.3315509 }, "geometry": { "type": "Point", "coordinates": [ -83.0466403, 42.3315509 ] } },
{ "type": "Feature", "properties": { "seed": 3.0, "school_common_name": "Michigan", "site": "Wichita, KS", "year": 2018.0, "id": 201826, "school_full_name": "University of Michigan", "team": "Wolverines", "city": "Ann Arbor", "state": "Michigan", "type": "State", "conference": "Big Ten Conference", "distance": 893.94475654131475, "address": "Wichita, KS", "lng": -97.3375448, "lat": 37.6922361 }, "geometry": { "type": "Point", "coordinates": [ -97.3375448, 37.6922361 ] } },
{ "type": "Feature", "properties": { "seed": 3.0, "school_common_name": "Tennessee", "site": "Dallas, TX", "year": 2018.0, "id": 201827, "school_full_name": "University of Tennessee", "team": "Volunteers", "city": "Knoxville", "state": "Tennessee", "type": "State", "conference": "Southeastern Conference", "distance": 823.64878785855956, "address": "Dallas, TX", "lng": -96.7968559, "lat": 32.7762719 }, "geometry": { "type": "Point", "coordinates": [ -96.7968559, 32.7762719 ] } },
{ "type": "Feature", "properties": { "seed": 4.0, "school_common_name": "Wichita State", "site": "San Diego, CA", "year": 2018.0, "id": 201828, "school_full_name": "Wichita State University", "team": "Shockers", "city": "Wichita", "state": "Kansas", "type": "State", "conference": "American Athletic Conference", "distance": 1273.4167397651017, "address": "San Diego, CA", "lng": -117.1627714, "lat": 32.7174209 }, "geometry": { "type": "Point", "coordinates": [ -117.1627714, 32.7174209 ] } },
{ "type": "Feature", "properties": { "seed": 4.0, "school_common_name": "Auburn", "site": "San Diego, CA", "year": 2018.0, "id": 201829, "school_full_name": "Auburn University", "team": "Tigers", "city": "Auburn", "state": "Alabama", "type": "State", "conference": "Southeastern Conference", "distance": 1968.1189467069114, "address": "San Diego, CA", "lng": -117.1627714, "lat": 32.7174209 }, "geometry": { "type": "Point", "coordinates": [ -117.1627714, 32.7174209 ] } },
{ "type": "Feature", "properties": { "seed": 4.0, "school_common_name": "Gonzaga", "site": "Boise, ID", "year": 2018.0, "id": 201830, "school_full_name": "Gonzaga University", "team": "Bulldogs", "city": "Spokane", "state": "Washington", "type": "Private\/Catholic", "conference": "West Coast Conference", "distance": 262.57110478761405, "address": "Boise, ID", "lng": -116.200886, "lat": 43.6166163 }, "geometry": { "type": "Point", "coordinates": [ -116.200886, 43.6166163 ] } },
{ "type": "Feature", "properties": { "seed": 4.0, "school_common_name": "Arizona", "site": "Boise, ID", "year": 2018.0, "id": 201831, "school_full_name": "University of Arizona", "team": "Wildcats", "city": "Tucson", "state": "Arizona", "type": "State", "conference": "Pac-12 Conference", "distance": 778.67567824760022, "address": "Boise, ID", "lng": -116.200886, "lat": 43.6166163 }, "geometry": { "type": "Point", "coordinates": [ -116.200886, 43.6166163 ] } },
{ "type": "Feature", "properties": { "seed": 1.0, "school_common_name": "Villanova", "site": "Buffalo, NY", "year": 2017.0, "id": 201732, "school_full_name": "Villanova University", "team": "Wildcats", "city": "Radnor Township", "state": "Pennsylvania", "type": "Private\/Catholic", "conference": "Big East Conference", "distance": 282.40479741546238, "address": "Buffalo, NY", "lng": -78.8783922, "lat": 42.8867166 }, "geometry": { "type": "Point", "coordinates": [ -78.8783922, 42.8867166 ] } },
{ "type": "Feature", "properties": { "seed": 1.0, "school_common_name": "Kansas", "site": "Tulsa, OK", "year": 2017.0, "id": 201733, "school_full_name": "University of Kansas", "team": "Jayhawks", "city": "Lawrence", "state": "Kansas", "type": "State", "conference": "Big 12 Conference", "distance": 180.22100371688072, "address": "Tulsa, OK", "lng": -95.9929113, "lat": 36.1556805 }, "geometry": { "type": "Point", "coordinates": [ -95.9929113, 36.1556805 ] } },
{ "type": "Feature", "properties": { "seed": 1.0, "school_common_name": "North Carolina", "site": "Greenville, SC", "year": 2017.0, "id": 201734, "school_full_name": "University of North Carolina at Chapel Hill", "team": "Tar Heels", "city": "Chapel Hill", "state": "North Carolina", "type": "State", "conference": "Atlantic Coast Conference", "distance": 218.30340668509675, "address": "Greenville, SC", "lng": -82.3984882, "lat": 34.851354 }, "geometry": { "type": "Point", "coordinates": [ -82.3984882, 34.851354 ] } },
{ "type": "Feature", "properties": { "seed": 1.0, "school_common_name": "Gonzaga", "site": "Salt Lake City, UT", "year": 2017.0, "id": 201735, "school_full_name": "Gonzaga University", "team": "Bulldogs", "city": "Spokane", "state": "Washington", "type": "Private\/Catholic", "conference": "West Coast Conference", "distance": 549.38026430060654, "address": "Salt Lake City, UT", "lng": -111.8867975, "lat": 40.7596198 }, "geometry": { "type": "Point", "coordinates": [ -111.8867975, 40.7596198 ] } },
{ "type": "Feature", "properties": { "seed": 2.0, "school_common_name": "Duke", "site": "Greenville, SC", "year": 2017.0, "id": 201736, "school_full_name": "Duke University", "team": "Blue Devils", "city": "Durham", "state": "North Carolina", "type": "Private\/Non-sectarian", "conference": "Atlantic Coast Conference", "distance": 226.24494515728276, "address": "Greenville, SC", "lng": -82.3984882, "lat": 34.851354 }, "geometry": { "type": "Point", "coordinates": [ -82.3984882, 34.851354 ] } },
{ "type": "Feature", "properties": { "seed": 2.0, "school_common_name": "Louisville", "site": "Indianapolis, IN", "year": 2017.0, "id": 201737, "school_full_name": "University of Louisville", "team": "Cardinals", "city": "Louisville", "state": "Kentucky", "type": "State", "conference": "Atlantic Coast Conference", "distance": 99.60114145862228, "address": "Indianapolis, IN", "lng": -86.1583502, "lat": 39.7683331 }, "geometry": { "type": "Point", "coordinates": [ -86.1583502, 39.7683331 ] } },
{ "type": "Feature", "properties": { "seed": 2.0, "school_common_name": "Kentucky", "site": "Indianapolis, IN", "year": 2017.0, "id": 201738, "school_full_name": "University of Kentucky", "team": "Wildcats", "city": "Lexington", "state": "Kentucky", "type": "State", "conference": "Southeastern Conference", "distance": 149.2422493392192, "address": "Indianapolis, IN", "lng": -86.1583502, "lat": 39.7683331 }, "geometry": { "type": "Point", "coordinates": [ -86.1583502, 39.7683331 ] } },
{ "type": "Feature", "properties": { "seed": 2.0, "school_common_name": "Arizona", "site": "Salt Lake City, UT", "year": 2017.0, "id": 201739, "school_full_name": "University of Arizona", "team": "Wildcats", "city": "Tucson", "state": "Arizona", "type": "State", "conference": "Pac-12 Conference", "distance": 533.20285962680941, "address": "Salt Lake City, UT", "lng": -111.8867975, "lat": 40.7596198 }, "geometry": { "type": "Point", "coordinates": [ -111.8867975, 40.7596198 ] } },
{ "type": "Feature", "properties": { "seed": 3.0, "school_common_name": "Baylor", "site": "Tulsa, OK", "year": 2017.0, "id": 201740, "school_full_name": "Baylor University", "team": "Bears", "city": "Waco", "state": "Texas", "type": "Private\/Baptist", "conference": "Big 12 Conference", "distance": 294.52230713076517, "address": "Tulsa, OK", "lng": -95.9929113, "lat": 36.1556805 }, "geometry": { "type": "Point", "coordinates": [ -95.9929113, 36.1556805 ] } },
{ "type": "Feature", "properties": { "seed": 3.0, "school_common_name": "Oregon", "site": "Sacramento, CA", "year": 2017.0, "id": 201741, "school_full_name": "University of Oregon", "team": "Ducks", "city": "Eugene", "state": "Oregon", "type": "State", "conference": "Pac-12 Conference", "distance": 353.46637837123922, "address": "Sacramento, CA", "lng": -121.4943996, "lat": 38.5815719 }, "geometry": { "type": "Point", "coordinates": [ -121.4943996, 38.5815719 ] } },
{ "type": "Feature", "properties": { "seed": 3.0, "school_common_name": "UCLA", "site": "Sacramento, CA", "year": 2017.0, "id": 201742, "school_full_name": "University of California, Los Angeles", "team": "Bruins", "city": "Los Angeles", "state": "California", "type": "State", "conference": "Pac-12 Conference", "distance": 338.33070167805579, "address": "Sacramento, CA", "lng": -121.4943996, "lat": 38.5815719 }, "geometry": { "type": "Point", "coordinates": [ -121.4943996, 38.5815719 ] } },
{ "type": "Feature", "properties": { "seed": 3.0, "school_common_name": "Florida State", "site": "Orlando, FL", "year": 2017.0, "id": 201743, "school_full_name": "Florida State University", "team": "Seminoles", "city": "Tallahassee", "state": "Florida", "type": "State", "conference": "Atlantic Coast Conference", "distance": 216.44306957531975, "address": "Orlando, FL", "lng": -81.3790304, "lat": 28.5421109 }, "geometry": { "type": "Point", "coordinates": [ -81.3790304, 28.5421109 ] } },
{ "type": "Feature", "properties": { "seed": 4.0, "school_common_name": "Florida", "site": "Orlando, FL", "year": 2017.0, "id": 201744, "school_full_name": "University of Florida", "team": "Gators", "city": "Gainesville", "state": "Florida", "type": "State", "conference": "Southeastern Conference", "distance": 90.719166731759813, "address": "Orlando, FL", "lng": -81.3790304, "lat": 28.5421109 }, "geometry": { "type": "Point", "coordinates": [ -81.3790304, 28.5421109 ] } },
{ "type": "Feature", "properties": { "seed": 4.0, "school_common_name": "Purdue", "site": "Milwaukee, WI", "year": 2017.0, "id": 201745, "school_full_name": "Purdue University", "team": "Boilermakers", "city": "West Lafayette", "state": "Indiana", "type": "State", "conference": "Big Ten Conference", "distance": 173.27556217040859, "address": "Milwaukee, WI", "lng": -87.922497, "lat": 43.0349931 }, "geometry": { "type": "Point", "coordinates": [ -87.922497, 43.0349931 ] } },
{ "type": "Feature", "properties": { "seed": 4.0, "school_common_name": "Butler", "site": "Milwaukee, WI", "year": 2017.0, "id": 201746, "school_full_name": "Butler University", "team": "Bulldogs", "city": "Indianapolis", "state": "Indiana", "type": "Private\/Non-Sectarian", "conference": "Big East Conference", "distance": 226.32907752444572, "address": "Milwaukee, WI", "lng": -87.922497, "lat": 43.0349931 }, "geometry": { "type": "Point", "coordinates": [ -87.922497, 43.0349931 ] } },
{ "type": "Feature", "properties": { "seed": 4.0, "school_common_name": "West Virginia", "site": "Buffalo, NY", "year": 2017.0, "id": 201747, "school_full_name": "West Virginia University", "team": "Mountaineers", "city": "Morgantown", "state": "West Virginia", "type": "State", "conference": "Big 12 Conference", "distance": 212.56408292213047, "address": "Buffalo, NY", "lng": -78.8783922, "lat": 42.8867166 }, "geometry": { "type": "Point", "coordinates": [ -78.8783922, 42.8867166 ] } },
{ "type": "Feature", "properties": { "seed": 1.0, "school_common_name": "North Carolina", "site": "Raleigh, NC", "year": 2016.0, "id": 201648, "school_full_name": "University of North Carolina at Chapel Hill", "team": "Tar Heels", "city": "Chapel Hill", "state": "North Carolina", "type": "State", "conference": "Atlantic Coast Conference", "distance": 26.55305978252759, "address": "Raleigh, NC", "lng": -78.6390989, "lat": 35.7803977 }, "geometry": { "type": "Point", "coordinates": [ -78.6390989, 35.7803977 ] } },
{ "type": "Feature", "properties": { "seed": 1.0, "school_common_name": "Kansas", "site": "Des Moines, IA", "year": 2016.0, "id": 201649, "school_full_name": "University of Kansas", "team": "Jayhawks", "city": "Lawrence", "state": "Kansas", "type": "State", "conference": "Big 12 Conference", "distance": 192.92243757930265, "address": "Des Moines, IA", "lng": -93.6037149, "lat": 41.5910641 }, "geometry": { "type": "Point", "coordinates": [ -93.603714900000014, 41.5910641 ] } },
{ "type": "Feature", "properties": { "seed": 1.0, "school_common_name": "Oregon", "site": "Spokane, WA", "year": 2016.0, "id": 201650, "school_full_name": "University of Oregon", "team": "Ducks", "city": "Eugene", "state": "Oregon", "type": "State", "conference": "Pac-12 Conference", "distance": 417.12373172967, "address": "Spokane, WA", "lng": -117.4212265, "lat": 47.6579425 }, "geometry": { "type": "Point", "coordinates": [ -117.4212265, 47.6579425 ] } },
{ "type": "Feature", "properties": { "seed": 1.0, "school_common_name": "Virginia", "site": "Raleigh, NC", "year": 2016.0, "id": 201651, "school_full_name": "University of Virginia", "team": "Cavaliers", "city": "Charlottesville", "state": "Virginia", "type": "State", "conference": "Atlantic Coast Conference", "distance": 140.74606276835104, "address": "Raleigh, NC", "lng": -78.6390989, "lat": 35.7803977 }, "geometry": { "type": "Point", "coordinates": [ -78.6390989, 35.7803977 ] } },
{ "type": "Feature", "properties": { "seed": 2.0, "school_common_name": "Xavier", "site": "St. Louis, MO", "year": 2016.0, "id": 201652, "school_full_name": "Xavier University", "team": "Musketeers", "city": "Cincinnati", "state": "Ohio", "type": "Private\/Catholic", "conference": "Big East Conference", "distance": 359.96035621673428, "address": "St. Louis, MO", "lng": -90.241116560246354, "lat": 38.6529545 }, "geometry": { "type": "Point", "coordinates": [ -90.241116560246354, 38.6529545 ] } },
{ "type": "Feature", "properties": { "seed": 2.0, "school_common_name": "Villanova", "site": "Brooklyn, NY", "year": 2016.0, "id": 201653, "school_full_name": "Villanova University", "team": "Wildcats", "city": "Radnor Township", "state": "Pennsylvania", "type": "Private\/Catholic", "conference": "Big East Conference", "distance": 94.484741910808111, "address": "Brooklyn, NY", "lng": -73.9495823, "lat": 40.6501038 }, "geometry": { "type": "Point", "coordinates": [ -73.9495823, 40.6501038 ] } },
{ "type": "Feature", "properties": { "seed": 2.0, "school_common_name": "Oklahoma", "site": "Oklahoma City, OK", "year": 2016.0, "id": 201654, "school_full_name": "University of Oklahoma", "team": "Sooners", "city": "Norman", "state": "Oklahoma", "type": "State", "conference": "Big 12 Conference", "distance": 17.777579432529297, "address": "Oklahoma City, OK", "lng": -97.5170536, "lat": 35.4729886 }, "geometry": { "type": "Point", "coordinates": [ -97.5170536, 35.4729886 ] } },
{ "type": "Feature", "properties": { "seed": 2.0, "school_common_name": "Michigan State", "site": "St. Louis, MO", "year": 2016.0, "id": 201655, "school_full_name": "Michigan State University", "team": "Spartans", "city": "East Lansing", "state": "Michigan", "type": "State", "conference": "Big Ten Conference", "distance": 438.34190059626866, "address": "St. Louis, MO", "lng": -90.241116560246354, "lat": 38.6529545 }, "geometry": { "type": "Point", "coordinates": [ -90.241116560246354, 38.6529545 ] } },
{ "type": "Feature", "properties": { "seed": 3.0, "school_common_name": "West Virginia", "site": "Brooklyn, NY", "year": 2016.0, "id": 201656, "school_full_name": "West Virginia University", "team": "Mountaineers", "city": "Morgantown", "state": "West Virginia", "type": "State", "conference": "Big 12 Conference", "distance": 380.00671942416506, "address": "Brooklyn, NY", "lng": -73.9495823, "lat": 40.6501038 }, "geometry": { "type": "Point", "coordinates": [ -73.9495823, 40.6501038 ] } },
{ "type": "Feature", "properties": { "seed": 3.0, "school_common_name": "Miami (FL)", "site": "Providence, RI", "year": 2016.0, "id": 201657, "school_full_name": "University of Miami", "team": "Hurricanes", "city": "Coral Gables", "state": "Florida", "type": "Private\/Non-Sectarian", "conference": "Atlantic Coast Conference", "distance": 1142.6712074581924, "address": "Providence, RI", "lng": -71.4128343, "lat": 41.8239891 }, "geometry": { "type": "Point", "coordinates": [ -71.4128343, 41.8239891 ] } },
{ "type": "Feature", "properties": { "seed": 3.0, "school_common_name": "Texas A&M", "site": "Oklahoma City, OK", "year": 2016.0, "id": 201658, "school_full_name": "Texas A&M University", "team": "Aggies", "city": "College Station", "state": "Texas", "type": "State", "conference": "Southeastern Conference", "distance": 315.92722719418731, "address": "Oklahoma City, OK", "lng": -97.5170536, "lat": 35.4729886 }, "geometry": { "type": "Point", "coordinates": [ -97.5170536, 35.4729886 ] } },
{ "type": "Feature", "properties": { "seed": 3.0, "school_common_name": "Utah", "site": "Denver, CO", "year": 2016.0, "id": 201659, "school_full_name": "University of Utah", "team": "Utes", "city": "Salt Lake City", "state": "Utah", "type": "State", "conference": "Pac-12 Conference", "distance": 430.58052062727643, "address": "Denver, CO", "lng": -104.9848623, "lat": 39.7392364 }, "geometry": { "type": "Point", "coordinates": [ -104.9848623, 39.7392364 ] } },
{ "type": "Feature", "properties": { "seed": 4.0, "school_common_name": "Kentucky", "site": "Des Moines, IA", "year": 2016.0, "id": 201660, "school_full_name": "University of Kentucky", "team": "Wildcats", "city": "Lexington", "state": "Kentucky", "type": "State", "conference": "Southeastern Conference", "distance": 607.33440079996456, "address": "Des Moines, IA", "lng": -93.6037149, "lat": 41.5910641 }, "geometry": { "type": "Point", "coordinates": [ -93.603714900000014, 41.5910641 ] } },
{ "type": "Feature", "properties": { "seed": 4.0, "school_common_name": "California", "site": "Spokane, WA", "year": 2016.0, "id": 201661, "school_full_name": "University of California, Berkeley", "team": "Golden Bears", "city": "Berkeley", "state": "California", "type": "State", "conference": "Pac-12 Conference", "distance": 678.7239164843802, "address": "Spokane, WA", "lng": -117.4212265, "lat": 47.6579425 }, "geometry": { "type": "Point", "coordinates": [ -117.4212265, 47.6579425 ] } },
{ "type": "Feature", "properties": { "seed": 4.0, "school_common_name": "Duke", "site": "Providence, RI", "year": 2016.0, "id": 201662, "school_full_name": "Duke University", "team": "Blue Devils", "city": "Durham", "state": "North Carolina", "type": "Private\/Non-sectarian", "conference": "Atlantic Coast Conference", "distance": 591.69976220648311, "address": "Providence, RI", "lng": -71.4128343, "lat": 41.8239891 }, "geometry": { "type": "Point", "coordinates": [ -71.4128343, 41.8239891 ] } },
{ "type": "Feature", "properties": { "seed": 4.0, "school_common_name": "Iowa State", "site": "Denver, CO", "year": 2016.0, "id": 201663, "school_full_name": "Iowa State University", "team": "Cyclones", "city": "Ames", "state": "Iowa", "type": "State", "conference": "Big 12 Conference", "distance": 719.00946649156117, "address": "Denver, CO", "lng": -104.9848623, "lat": 39.7392364 }, "geometry": { "type": "Point", "coordinates": [ -104.9848623, 39.7392364 ] } },
{ "type": "Feature", "properties": { "seed": 1.0, "school_common_name": "Villanova", "site": "Pittsburgh, PA", "year": 2015.0, "id": 201564, "school_full_name": "Villanova University", "team": "Wildcats", "city": "Radnor Township", "state": "Pennsylvania", "type": "Private\/Catholic", "conference": "Big East Conference", "distance": 290.09282402281229, "address": "Pittsburgh, PA", "lng": -79.9900861, "lat": 40.4416941 }, "geometry": { "type": "Point", "coordinates": [ -79.990086099999985, 40.4416941 ] } },
{ "type": "Feature", "properties": { "seed": 1.0, "school_common_name": "Kentucky", "site": "Louisville, KY", "year": 2015.0, "id": 201565, "school_full_name": "University of Kentucky", "team": "Wildcats", "city": "Lexington", "state": "Kentucky", "type": "State", "conference": "Southeastern Conference", "distance": 79.241390260138331, "address": "Louisville, KY", "lng": -85.759407, "lat": 38.2542376 }, "geometry": { "type": "Point", "coordinates": [ -85.759407, 38.2542376 ] } },
{ "type": "Feature", "properties": { "seed": 1.0, "school_common_name": "Duke", "site": "Charlotte, NC", "year": 2015.0, "id": 201566, "school_full_name": "Duke University", "team": "Blue Devils", "city": "Durham", "state": "North Carolina", "type": "Private\/Non-sectarian", "conference": "Atlantic Coast Conference", "distance": 127.4226595727384, "address": "Charlotte, NC", "lng": -80.8431268, "lat": 35.2270869 }, "geometry": { "type": "Point", "coordinates": [ -80.8431268, 35.2270869 ] } },
{ "type": "Feature", "properties": { "seed": 1.0, "school_common_name": "Wisconsin", "site": "Omaha, NE", "year": 2015.0, "id": 201567, "school_full_name": "University of Wisconsin–Madison", "team": "Badgers", "city": "Madison", "state": "Wisconsin", "type": "State", "conference": "Big Ten Conference", "distance": 421.31960328667168, "address": "Omaha, NE", "lng": -95.9383758, "lat": 41.2587459 }, "geometry": { "type": "Point", "coordinates": [ -95.938375799999989, 41.258745899999987 ] } },
{ "type": "Feature", "properties": { "seed": 2.0, "school_common_name": "Virginia", "site": "Charlotte, NC", "year": 2015.0, "id": 201568, "school_full_name": "University of Virginia", "team": "Cavaliers", "city": "Charlottesville", "state": "Virginia", "type": "State", "conference": "Atlantic Coast Conference", "distance": 227.36289571355255, "address": "Charlotte, NC", "lng": -80.8431268, "lat": 35.2270869 }, "geometry": { "type": "Point", "coordinates": [ -80.8431268, 35.2270869 ] } },
{ "type": "Feature", "properties": { "seed": 2.0, "school_common_name": "Kansas", "site": "Omaha, NE", "year": 2015.0, "id": 201569, "school_full_name": "University of Kansas", "team": "Jayhawks", "city": "Lawrence", "state": "Kansas", "type": "State", "conference": "Big 12 Conference", "distance": 149.29205440646493, "address": "Omaha, NE", "lng": -95.9383758, "lat": 41.2587459 }, "geometry": { "type": "Point", "coordinates": [ -95.938375799999989, 41.258745899999987 ] } },
{ "type": "Feature", "properties": { "seed": 2.0, "school_common_name": "Gonzaga", "site": "Seattle, WA", "year": 2015.0, "id": 201570, "school_full_name": "Gonzaga University", "team": "Bulldogs", "city": "Spokane", "state": "Washington", "type": "Private\/Catholic", "conference": "West Coast Conference", "distance": 306.24115061816065, "address": "Seattle, WA", "lng": -122.3300624, "lat": 47.6038321 }, "geometry": { "type": "Point", "coordinates": [ -122.3300624, 47.6038321 ] } },
{ "type": "Feature", "properties": { "seed": 2.0, "school_common_name": "Arizona", "site": "Portland, OR", "year": 2015.0, "id": 201571, "school_full_name": "University of Arizona", "team": "Wildcats", "city": "Tucson", "state": "Arizona", "type": "State", "conference": "Pac-12 Conference", "distance": 1100.4137733329831, "address": "Portland, OR", "lng": -122.6741949, "lat": 45.5202471 }, "geometry": { "type": "Point", "coordinates": [ -122.6741949, 45.5202471 ] } },
{ "type": "Feature", "properties": { "seed": 3.0, "school_common_name": "Oklahoma", "site": "Columbus, OH", "year": 2015.0, "id": 201572, "school_full_name": "University of Oklahoma", "team": "Sooners", "city": "Norman", "state": "Oklahoma", "type": "State", "conference": "Big 12 Conference", "distance": 945.3716477413094, "address": "Columbus, OH", "lng": -83.0007065, "lat": 39.9622601 }, "geometry": { "type": "Point", "coordinates": [ -83.0007065, 39.9622601 ] } },
{ "type": "Feature", "properties": { "seed": 3.0, "school_common_name": "Notre Dame", "site": "Pittsburgh, PA", "year": 2015.0, "id": 201573, "school_full_name": "University of Notre Dame", "team": "Fighting Irish", "city": "South Bend", "state": "Indiana", "type": "Private\/Catholic", "conference": "Atlantic Coast Conference", "distance": 396.17667810640705, "address": "Pittsburgh, PA", "lng": -79.9900861, "lat": 40.4416941 }, "geometry": { "type": "Point", "coordinates": [ -79.990086099999985, 40.4416941 ] } },
{ "type": "Feature", "properties": { "seed": 3.0, "school_common_name": "Iowa State", "site": "Louisville, KY", "year": 2015.0, "id": 201574, "school_full_name": "Iowa State University", "team": "Cyclones", "city": "Ames", "state": "Iowa", "type": "State", "conference": "Big 12 Conference", "distance": 543.30107691588557, "address": "Louisville, KY", "lng": -85.759407, "lat": 38.2542376 }, "geometry": { "type": "Point", "coordinates": [ -85.759407, 38.2542376 ] } },
{ "type": "Feature", "properties": { "seed": 3.0, "school_common_name": "Baylor", "site": "Jacksonville, FL", "year": 2015.0, "id": 201575, "school_full_name": "Baylor University", "team": "Bears", "city": "Waco", "state": "Texas", "type": "Private\/Baptist", "conference": "Big 12 Conference", "distance": 963.49167152504003, "address": "Jacksonville, FL", "lng": -81.655651, "lat": 30.3321838 }, "geometry": { "type": "Point", "coordinates": [ -81.655651, 30.3321838 ] } },
{ "type": "Feature", "properties": { "seed": 4.0, "school_common_name": "Louisville", "site": "Seattle, WA", "year": 2015.0, "id": 201576, "school_full_name": "University of Louisville", "team": "Cardinals", "city": "Louisville", "state": "Kentucky", "type": "State", "conference": "Atlantic Coast Conference", "distance": 2346.692346027221, "address": "Seattle, WA", "lng": -122.3300624, "lat": 47.6038321 }, "geometry": { "type": "Point", "coordinates": [ -122.3300624, 47.6038321 ] } },
{ "type": "Feature", "properties": { "seed": 4.0, "school_common_name": "Maryland", "site": "Columbus, OH", "year": 2015.0, "id": 201577, "school_full_name": "University of Maryland, College Park", "team": "Terrapins", "city": "College Park", "state": "Maryland", "type": "State", "conference": "Big Ten Conference", "distance": 381.09688700730567, "address": "Columbus, OH", "lng": -83.0007065, "lat": 39.9622601 }, "geometry": { "type": "Point", "coordinates": [ -83.0007065, 39.9622601 ] } },
{ "type": "Feature", "properties": { "seed": 4.0, "school_common_name": "Georgetown", "site": "Portland, OR", "year": 2015.0, "id": 201578, "school_full_name": "Georgetown University", "team": "Hoyas", "city": "Washington", "state": "District of Columbia", "type": "Private\/Catholic", "conference": "Big East Conference", "distance": 2863.6666500298802, "address": "Portland, OR", "lng": -122.6741949, "lat": 45.5202471 }, "geometry": { "type": "Point", "coordinates": [ -122.6741949, 45.5202471 ] } },
{ "type": "Feature", "properties": { "seed": 4.0, "school_common_name": "North Carolina", "site": "Jacksonville, FL", "year": 2015.0, "id": 201579, "school_full_name": "University of North Carolina at Chapel Hill", "team": "Tar Heels", "city": "Chapel Hill", "state": "North Carolina", "type": "State", "conference": "Atlantic Coast Conference", "distance": 382.40333468914901, "address": "Jacksonville, FL", "lng": -81.655651, "lat": 30.3321838 }, "geometry": { "type": "Point", "coordinates": [ -81.655651, 30.3321838 ] } },
{ "type": "Feature", "properties": { "seed": 1.0, "school_common_name": "Wichita State", "site": "St. Louis, MO", "year": 2014.0, "id": 201480, "school_full_name": "Wichita State University", "team": "Shockers", "city": "Wichita", "state": "Kansas", "type": "State", "conference": "American Athletic Conference", "distance": 442.12628707999352, "address": "St. Louis, MO", "lng": -90.241116560246354, "lat": 38.6529545 }, "geometry": { "type": "Point", "coordinates": [ -90.241116560246354, 38.6529545 ] } },
{ "type": "Feature", "properties": { "seed": 1.0, "school_common_name": "Florida", "site": "Orlando, FL", "year": 2014.0, "id": 201481, "school_full_name": "University of Florida", "team": "Gators", "city": "Gainesville", "state": "Florida", "type": "State", "conference": "Southeastern Conference", "distance": 90.719166731759813, "address": "Orlando, FL", "lng": -81.3790304, "lat": 28.5421109 }, "geometry": { "type": "Point", "coordinates": [ -81.3790304, 28.5421109 ] } },
{ "type": "Feature", "properties": { "seed": 1.0, "school_common_name": "Virginia", "site": "Raleigh, NC", "year": 2014.0, "id": 201482, "school_full_name": "University of Virginia", "team": "Cavaliers", "city": "Charlottesville", "state": "Virginia", "type": "State", "conference": "Atlantic Coast Conference", "distance": 140.74606276835104, "address": "Raleigh, NC", "lng": -78.6390989, "lat": 35.7803977 }, "geometry": { "type": "Point", "coordinates": [ -78.6390989, 35.7803977 ] } },
{ "type": "Feature", "properties": { "seed": 1.0, "school_common_name": "Arizona", "site": "San Diego, CA", "year": 2014.0, "id": 201483, "school_full_name": "University of Arizona", "team": "Wildcats", "city": "Tucson", "state": "Arizona", "type": "State", "conference": "Pac-12 Conference", "distance": 385.65302915738835, "address": "San Diego, CA", "lng": -117.1627714, "lat": 32.7174209 }, "geometry": { "type": "Point", "coordinates": [ -117.1627714, 32.7174209 ] } },
{ "type": "Feature", "properties": { "seed": 2.0, "school_common_name": "Michigan", "site": "Milwaukee, WI", "year": 2014.0, "id": 201484, "school_full_name": "University of Michigan", "team": "Wolverines", "city": "Ann Arbor", "state": "Michigan", "type": "State", "conference": "Big Ten Conference", "distance": 265.82328881792245, "address": "Milwaukee, WI", "lng": -87.922497, "lat": 43.0349931 }, "geometry": { "type": "Point", "coordinates": [ -87.922497, 43.0349931 ] } },
{ "type": "Feature", "properties": { "seed": 2.0, "school_common_name": "Kansas", "site": "St. Louis, MO", "year": 2014.0, "id": 201485, "school_full_name": "University of Kansas", "team": "Jayhawks", "city": "Lawrence", "state": "Kansas", "type": "State", "conference": "Big 12 Conference", "distance": 311.7415540847669, "address": "St. Louis, MO", "lng": -90.241116560246354, "lat": 38.6529545 }, "geometry": { "type": "Point", "coordinates": [ -90.241116560246354, 38.6529545 ] } },
{ "type": "Feature", "properties": { "seed": 2.0, "school_common_name": "Villanova", "site": "Buffalo, NY", "year": 2014.0, "id": 201486, "school_full_name": "Villanova University", "team": "Wildcats", "city": "Radnor Township", "state": "Pennsylvania", "type": "Private\/Catholic", "conference": "Big East Conference", "distance": 282.40479741546238, "address": "Buffalo, NY", "lng": -78.8783922, "lat": 42.8867166 }, "geometry": { "type": "Point", "coordinates": [ -78.8783922, 42.8867166 ] } },
{ "type": "Feature", "properties": { "seed": 2.0, "school_common_name": "Wisconsin", "site": "Milwaukee, WI", "year": 2014.0, "id": 201487, "school_full_name": "University of Wisconsin–Madison", "team": "Badgers", "city": "Madison", "state": "Wisconsin", "type": "State", "conference": "Big Ten Conference", "distance": 92.222945420797558, "address": "Milwaukee, WI", "lng": -87.922497, "lat": 43.0349931 }, "geometry": { "type": "Point", "coordinates": [ -87.922497, 43.0349931 ] } },
{ "type": "Feature", "properties": { "seed": 3.0, "school_common_name": "Duke", "site": "Raleigh, NC", "year": 2014.0, "id": 201488, "school_full_name": "Duke University", "team": "Blue Devils", "city": "Durham", "state": "North Carolina", "type": "Private\/Non-sectarian", "conference": "Atlantic Coast Conference", "distance": 23.370402869022445, "address": "Raleigh, NC", "lng": -78.6390989, "lat": 35.7803977 }, "geometry": { "type": "Point", "coordinates": [ -78.6390989, 35.7803977 ] } },
{ "type": "Feature", "properties": { "seed": 3.0, "school_common_name": "Syracuse", "site": "Buffalo, NY", "year": 2014.0, "id": 201489, "school_full_name": "Syracuse University", "team": "Orange", "city": "Syracuse", "state": "New York", "type": "Private\/Methodist", "conference": "Atlantic Coast Conference", "distance": 170.86797746071821, "address": "Buffalo, NY", "lng": -78.8783922, "lat": 42.8867166 }, "geometry": { "type": "Point", "coordinates": [ -78.8783922, 42.8867166 ] } },
{ "type": "Feature", "properties": { "seed": 3.0, "school_common_name": "Iowa State", "site": "San Antonio, TX", "year": 2014.0, "id": 201490, "school_full_name": "Iowa State University", "team": "Cyclones", "city": "Ames", "state": "Iowa", "type": "State", "conference": "Big 12 Conference", "distance": 839.30832717101259, "address": "San Antonio, TX", "lng": -98.4951405, "lat": 29.4246002 }, "geometry": { "type": "Point", "coordinates": [ -98.4951405, 29.4246002 ] } },
{ "type": "Feature", "properties": { "seed": 3.0, "school_common_name": "Creighton", "site": "San Antonio, TX", "year": 2014.0, "id": 201491, "school_full_name": "Creighton University", "team": "Bluejays", "city": "Omaha", "state": "Nebraska", "type": "Private\/Catholic", "conference": "Big East Conference", "distance": 752.82653154206616, "address": "San Antonio, TX", "lng": -98.4951405, "lat": 29.4246002 }, "geometry": { "type": "Point", "coordinates": [ -98.4951405, 29.4246002 ] } },
{ "type": "Feature", "properties": { "seed": 4.0, "school_common_name": "Louisville", "site": "Orlando, FL", "year": 2014.0, "id": 201492, "school_full_name": "University of Louisville", "team": "Cardinals", "city": "Louisville", "state": "Kentucky", "type": "State", "conference": "Atlantic Coast Conference", "distance": 659.98808921635055, "address": "Orlando, FL", "lng": -81.3790304, "lat": 28.5421109 }, "geometry": { "type": "Point", "coordinates": [ -81.3790304, 28.5421109 ] } },
{ "type": "Feature", "properties": { "seed": 4.0, "school_common_name": "UCLA", "site": "San Diego, CA", "year": 2014.0, "id": 201493, "school_full_name": "University of California, Los Angeles", "team": "Bruins", "city": "Los Angeles", "state": "California", "type": "State", "conference": "Pac-12 Conference", "distance": 115.94766982184925, "address": "San Diego, CA", "lng": -117.1627714, "lat": 32.7174209 }, "geometry": { "type": "Point", "coordinates": [ -117.1627714, 32.7174209 ] } },
{ "type": "Feature", "properties": { "seed": 4.0, "school_common_name": "Michigan State", "site": "Spokane, WA", "year": 2014.0, "id": 201494, "school_full_name": "Michigan State University", "team": "Spartans", "city": "East Lansing", "state": "Michigan", "type": "State", "conference": "Big Ten Conference", "distance": 2070.3260870967174, "address": "Spokane, WA", "lng": -117.4212265, "lat": 47.6579425 }, "geometry": { "type": "Point", "coordinates": [ -117.4212265, 47.6579425 ] } },
{ "type": "Feature", "properties": { "seed": 4.0, "school_common_name": "San Diego State", "site": "Spokane, WA", "year": 2014.0, "id": 201495, "school_full_name": "San Diego State University", "team": "Aztecs", "city": "San Diego", "state": "California", "type": "State", "conference": "Mountain West Conference", "distance": 925.24424922317723, "address": "Spokane, WA", "lng": -117.4212265, "lat": 47.6579425 }, "geometry": { "type": "Point", "coordinates": [ -117.4212265, 47.6579425 ] } },
{ "type": "Feature", "properties": { "seed": 1.0, "school_common_name": "Indiana", "site": "Dayton, OH", "year": 2013.0, "id": 201396, "school_full_name": "Indiana University", "team": "Hoosiers", "city": "Bloomington", "state": "Indiana", "type": "State", "conference": "Big Ten Conference", "distance": 148.92001413737017, "address": "Dayton, OH", "lng": -84.1916069, "lat": 39.7589478 }, "geometry": { "type": "Point", "coordinates": [ -84.1916069, 39.758947799999987 ] } },
{ "type": "Feature", "properties": { "seed": 1.0, "school_common_name": "Louisville", "site": "Lexington, KY", "year": 2013.0, "id": 201397, "school_full_name": "University of Louisville", "team": "Cardinals", "city": "Louisville", "state": "Kentucky", "type": "State", "conference": "Atlantic Coast Conference", "distance": 79.03502143796608, "address": "Lexington, KY", "lng": -84.4970393, "lat": 38.0464066 }, "geometry": { "type": "Point", "coordinates": [ -84.4970393, 38.0464066 ] } },
{ "type": "Feature", "properties": { "seed": 1.0, "school_common_name": "Gonzaga", "site": "Salt Lake City, UT", "year": 2013.0, "id": 201398, "school_full_name": "Gonzaga University", "team": "Bulldogs", "city": "Spokane", "state": "Washington", "type": "Private\/Catholic", "conference": "West Coast Conference", "distance": 549.38026430060654, "address": "Salt Lake City, UT", "lng": -111.8867975, "lat": 40.7596198 }, "geometry": { "type": "Point", "coordinates": [ -111.8867975, 40.7596198 ] } },
{ "type": "Feature", "properties": { "seed": 1.0, "school_common_name": "Kansas", "site": "Kansas City, MO", "year": 2013.0, "id": 201399, "school_full_name": "University of Kansas", "team": "Jayhawks", "city": "Lawrence", "state": "Kansas", "type": "State", "conference": "Big 12 Conference", "distance": 42.542537672077344, "address": "Kansas City, MO", "lng": -94.5781416, "lat": 39.100105 }, "geometry": { "type": "Point", "coordinates": [ -94.5781416, 39.100105 ] } },
{ "type": "Feature", "properties": { "seed": 2.0, "school_common_name": "Miami (FL)", "site": "Austin, TX", "year": 2013.0, "id": 2013100, "school_full_name": "University of Miami", "team": "Hurricanes", "city": "Coral Gables", "state": "Florida", "type": "Private\/Non-Sectarian", "conference": "Atlantic Coast Conference", "distance": 1121.7485932414013, "address": "Austin, TX", "lng": -97.7436995, "lat": 30.2711286 }, "geometry": { "type": "Point", "coordinates": [ -97.7436995, 30.2711286 ] } },
{ "type": "Feature", "properties": { "seed": 2.0, "school_common_name": "Duke", "site": "Philadelphia, PA", "year": 2013.0, "id": 2013101, "school_full_name": "Duke University", "team": "Blue Devils", "city": "Durham", "state": "North Carolina", "type": "Private\/Non-sectarian", "conference": "Atlantic Coast Conference", "distance": 339.93778571149846, "address": "Philadelphia, PA", "lng": -75.1635262, "lat": 39.9527237 }, "geometry": { "type": "Point", "coordinates": [ -75.1635262, 39.9527237 ] } },
{ "type": "Feature", "properties": { "seed": 2.0, "school_common_name": "Ohio State", "site": "Dayton, OH", "year": 2013.0, "id": 2013102, "school_full_name": "The Ohio State University", "team": "Buckeyes", "city": "Columbus", "state": "Ohio", "type": "State", "conference": "Big Ten Conference", "distance": 73.886625374538824, "address": "Dayton, OH", "lng": -84.1916069, "lat": 39.7589478 }, "geometry": { "type": "Point", "coordinates": [ -84.1916069, 39.758947799999987 ] } },
{ "type": "Feature", "properties": { "seed": 2.0, "school_common_name": "Georgetown", "site": "Philadelphia, PA", "year": 2013.0, "id": 2013103, "school_full_name": "Georgetown University", "team": "Hoyas", "city": "Washington", "state": "District of Columbia", "type": "Private\/Catholic", "conference": "Big East Conference", "distance": 135.33400174963194, "address": "Philadelphia, PA", "lng": -75.1635262, "lat": 39.9527237 }, "geometry": { "type": "Point", "coordinates": [ -75.1635262, 39.9527237 ] } },
{ "type": "Feature", "properties": { "seed": 3.0, "school_common_name": "Marquette", "site": "Lexington, KY", "year": 2013.0, "id": 2013104, "school_full_name": "Marquette University", "team": "Golden Eagles", "city": "Milwaukee", "state": "Wisconsin", "type": "Private\/Catholic", "conference": "Big East Conference", "distance": 376.61733353379191, "address": "Lexington, KY", "lng": -84.4970393, "lat": 38.0464066 }, "geometry": { "type": "Point", "coordinates": [ -84.4970393, 38.0464066 ] } },
{ "type": "Feature", "properties": { "seed": 3.0, "school_common_name": "Michigan State", "site": "Auburn Hills, MI", "year": 2013.0, "id": 2013105, "school_full_name": "Michigan State University", "team": "Spartans", "city": "East Lansing", "state": "Michigan", "type": "State", "conference": "Big Ten Conference", "distance": 77.32753582661681, "address": "Auburn Hills, MI", "lng": -83.2341028, "lat": 42.6875323 }, "geometry": { "type": "Point", "coordinates": [ -83.234102799999988, 42.6875323 ] } },
{ "type": "Feature", "properties": { "seed": 3.0, "school_common_name": "New Mexico", "site": "Salt Lake City, UT", "year": 2013.0, "id": 2013106, "school_full_name": "University of New Mexico", "team": "Lobos", "city": "Albuquerque", "state": "New Mexico", "type": "State", "conference": "Mountain West Conference", "distance": 481.09283382209463, "address": "Salt Lake City, UT", "lng": -111.8867975, "lat": 40.7596198 }, "geometry": { "type": "Point", "coordinates": [ -111.8867975, 40.7596198 ] } },
{ "type": "Feature", "properties": { "seed": 3.0, "school_common_name": "Florida", "site": "Austin, TX", "year": 2013.0, "id": 2013107, "school_full_name": "University of Florida", "team": "Gators", "city": "Gainesville", "state": "Florida", "type": "State", "conference": "Southeastern Conference", "distance": 957.6079031487933, "address": "Austin, TX", "lng": -97.7436995, "lat": 30.2711286 }, "geometry": { "type": "Point", "coordinates": [ -97.7436995, 30.2711286 ] } },
{ "type": "Feature", "properties": { "seed": 4.0, "school_common_name": "Syracuse", "site": "San Jose, CA", "year": 2013.0, "id": 2013108, "school_full_name": "Syracuse University", "team": "Orange", "city": "Syracuse", "state": "New York", "type": "Private\/Methodist", "conference": "Atlantic Coast Conference", "distance": 2865.8293898150741, "address": "San Jose, CA", "lng": -121.8905833, "lat": 37.3361905 }, "geometry": { "type": "Point", "coordinates": [ -121.8905833, 37.3361905 ] } },
{ "type": "Feature", "properties": { "seed": 4.0, "school_common_name": "Saint Louis", "site": "San Jose, CA", "year": 2013.0, "id": 2013109, "school_full_name": "Saint Louis University", "team": "Billikens", "city": "St. Louis", "state": "Missouri", "type": "Private\/Catholic", "conference": "Atlantic 10 Conference", "distance": 1969.269626286512, "address": "San Jose, CA", "lng": -121.8905833, "lat": 37.3361905 }, "geometry": { "type": "Point", "coordinates": [ -121.8905833, 37.3361905 ] } },
{ "type": "Feature", "properties": { "seed": 4.0, "school_common_name": "Kansas State", "site": "Kansas City, MO", "year": 2013.0, "id": 2013110, "school_full_name": "Kansas State University", "team": "Wildcats", "city": "Manhattan", "state": "Kansas", "type": "State", "conference": "Big 12 Conference", "distance": 125.12328313066391, "address": "Kansas City, MO", "lng": -94.5781416, "lat": 39.100105 }, "geometry": { "type": "Point", "coordinates": [ -94.5781416, 39.100105 ] } },
{ "type": "Feature", "properties": { "seed": 4.0, "school_common_name": "Michigan", "site": "Auburn Hills, MI", "year": 2013.0, "id": 2013111, "school_full_name": "University of Michigan", "team": "Wolverines", "city": "Ann Arbor", "state": "Michigan", "type": "State", "conference": "Big Ten Conference", "distance": 38.37324850034797, "address": "Auburn Hills, MI", "lng": -83.2341028, "lat": 42.6875323 }, "geometry": { "type": "Point", "coordinates": [ -83.234102799999988, 42.6875323 ] } },
{ "type": "Feature", "properties": { "seed": 1.0, "school_common_name": "North Carolina", "site": "Greensboro, NC", "year": 2012.0, "id": 2012112, "school_full_name": "University of North Carolina at Chapel Hill", "team": "Tar Heels", "city": "Chapel Hill", "state": "North Carolina", "type": "State", "conference": "Atlantic Coast Conference", "distance": 47.412098586848842, "address": "Greensboro, NC", "lng": -79.7919754, "lat": 36.0726355 }, "geometry": { "type": "Point", "coordinates": [ -79.791975400000013, 36.0726355 ] } },
{ "type": "Feature", "properties": { "seed": 1.0, "school_common_name": "Kentucky", "site": "Louisville, KY", "year": 2012.0, "id": 2012113, "school_full_name": "University of Kentucky", "team": "Wildcats", "city": "Lexington", "state": "Kentucky", "type": "State", "conference": "Southeastern Conference", "distance": 79.241390260138331, "address": "Louisville, KY", "lng": -85.759407, "lat": 38.2542376 }, "geometry": { "type": "Point", "coordinates": [ -85.759407, 38.2542376 ] } },
{ "type": "Feature", "properties": { "seed": 1.0, "school_common_name": "Michigan State", "site": "Columbus, OH", "year": 2012.0, "id": 2012114, "school_full_name": "Michigan State University", "team": "Spartans", "city": "East Lansing", "state": "Michigan", "type": "State", "conference": "Big Ten Conference", "distance": 194.35674776724636, "address": "Columbus, OH", "lng": -83.0007065, "lat": 39.9622601 }, "geometry": { "type": "Point", "coordinates": [ -83.0007065, 39.9622601 ] } },
{ "type": "Feature", "properties": { "seed": 1.0, "school_common_name": "Syracuse", "site": "Pittsburgh, PA", "year": 2012.0, "id": 2012115, "school_full_name": "Syracuse University", "team": "Orange", "city": "Syracuse", "state": "New York", "type": "Private\/Methodist", "conference": "Atlantic Coast Conference", "distance": 288.96346686868895, "address": "Pittsburgh, PA", "lng": -79.9900861, "lat": 40.4416941 }, "geometry": { "type": "Point", "coordinates": [ -79.990086099999985, 40.4416941 ] } },
{ "type": "Feature", "properties": { "seed": 2.0, "school_common_name": "Kansas", "site": "Omaha, NE", "year": 2012.0, "id": 2012116, "school_full_name": "University of Kansas", "team": "Jayhawks", "city": "Lawrence", "state": "Kansas", "type": "State", "conference": "Big 12 Conference", "distance": 149.29205440646493, "address": "Omaha, NE", "lng": -95.9383758, "lat": 41.2587459 }, "geometry": { "type": "Point", "coordinates": [ -95.938375799999989, 41.258745899999987 ] } },
{ "type": "Feature", "properties": { "seed": 2.0, "school_common_name": "Duke", "site": "Greensboro, NC", "year": 2012.0, "id": 2012117, "school_full_name": "Duke University", "team": "Blue Devils", "city": "Durham", "state": "North Carolina", "type": "Private\/Non-sectarian", "conference": "Atlantic Coast Conference", "distance": 52.879952950645645, "address": "Greensboro, NC", "lng": -79.7919754, "lat": 36.0726355 }, "geometry": { "type": "Point", "coordinates": [ -79.791975400000013, 36.0726355 ] } },
{ "type": "Feature", "properties": { "seed": 2.0, "school_common_name": "Missouri", "site": "Omaha, NE", "year": 2012.0, "id": 2012118, "school_full_name": "University of Missouri", "team": "Tigers", "city": "Columbia", "state": "Missouri", "type": "State", "conference": "Southeastern Conference", "distance": 266.70954785913005, "address": "Omaha, NE", "lng": -95.9383758, "lat": 41.2587459 }, "geometry": { "type": "Point", "coordinates": [ -95.938375799999989, 41.258745899999987 ] } },
{ "type": "Feature", "properties": { "seed": 2.0, "school_common_name": "Ohio State", "site": "Pittsburgh, PA", "year": 2012.0, "id": 2012119, "school_full_name": "The Ohio State University", "team": "Buckeyes", "city": "Columbus", "state": "Ohio", "type": "State", "conference": "Big Ten Conference", "distance": 190.78281170237892, "address": "Pittsburgh, PA", "lng": -79.9900861, "lat": 40.4416941 }, "geometry": { "type": "Point", "coordinates": [ -79.990086099999985, 40.4416941 ] } },
{ "type": "Feature", "properties": { "seed": 3.0, "school_common_name": "Georgetown", "site": "Columbus, OH", "year": 2012.0, "id": 2012120, "school_full_name": "Georgetown University", "team": "Hoyas", "city": "Washington", "state": "District of Columbia", "type": "Private\/Catholic", "conference": "Big East Conference", "distance": 374.08381643141354, "address": "Columbus, OH", "lng": -83.0007065, "lat": 39.9622601 }, "geometry": { "type": "Point", "coordinates": [ -83.0007065, 39.9622601 ] } },
{ "type": "Feature", "properties": { "seed": 3.0, "school_common_name": "Baylor", "site": "Albuquerque, NM", "year": 2012.0, "id": 2012121, "school_full_name": "Baylor University", "team": "Bears", "city": "Waco", "state": "Texas", "type": "Private\/Baptist", "conference": "Big 12 Conference", "distance": 632.32247225656749, "address": "Albuquerque, NM", "lng": -106.6509851, "lat": 35.0841034 }, "geometry": { "type": "Point", "coordinates": [ -106.6509851, 35.0841034 ] } },
{ "type": "Feature", "properties": { "seed": 3.0, "school_common_name": "Marquette", "site": "Louisville, KY", "year": 2012.0, "id": 2012122, "school_full_name": "Marquette University", "team": "Golden Eagles", "city": "Milwaukee", "state": "Wisconsin", "type": "Private\/Catholic", "conference": "Big East Conference", "distance": 326.57765353557738, "address": "Louisville, KY", "lng": -85.759407, "lat": 38.2542376 }, "geometry": { "type": "Point", "coordinates": [ -85.759407, 38.2542376 ] } },
{ "type": "Feature", "properties": { "seed": 3.0, "school_common_name": "Florida State", "site": "Nashville, TN", "year": 2012.0, "id": 2012123, "school_full_name": "Florida State University", "team": "Seminoles", "city": "Tallahassee", "state": "Florida", "type": "State", "conference": "Atlantic Coast Conference", "distance": 387.39107965583554, "address": "Nashville, TN", "lng": -86.7743531, "lat": 36.1622296 }, "geometry": { "type": "Point", "coordinates": [ -86.7743531, 36.1622296 ] } },
{ "type": "Feature", "properties": { "seed": 4.0, "school_common_name": "Michigan", "site": "Nashville, TN", "year": 2012.0, "id": 2012124, "school_full_name": "University of Michigan", "team": "Wolverines", "city": "Ann Arbor", "state": "Michigan", "type": "State", "conference": "Big Ten Conference", "distance": 426.04206841432779, "address": "Nashville, TN", "lng": -86.7743531, "lat": 36.1622296 }, "geometry": { "type": "Point", "coordinates": [ -86.7743531, 36.1622296 ] } },
{ "type": "Feature", "properties": { "seed": 4.0, "school_common_name": "Indiana", "site": "Portland, OR", "year": 2012.0, "id": 2012125, "school_full_name": "Indiana University", "team": "Hoosiers", "city": "Bloomington", "state": "Indiana", "type": "State", "conference": "Big Ten Conference", "distance": 2281.5400696960583, "address": "Portland, OR", "lng": -122.6741949, "lat": 45.5202471 }, "geometry": { "type": "Point", "coordinates": [ -122.6741949, 45.5202471 ] } },
{ "type": "Feature", "properties": { "seed": 4.0, "school_common_name": "Louisville", "site": "Portland, OR", "year": 2012.0, "id": 2012126, "school_full_name": "University of Louisville", "team": "Cardinals", "city": "Louisville", "state": "Kentucky", "type": "State", "conference": "Atlantic Coast Conference", "distance": 2338.872303484387, "address": "Portland, OR", "lng": -122.6741949, "lat": 45.5202471 }, "geometry": { "type": "Point", "coordinates": [ -122.6741949, 45.5202471 ] } },
{ "type": "Feature", "properties": { "seed": 4.0, "school_common_name": "Wisconsin", "site": "Albuquerque, NM", "year": 2012.0, "id": 2012127, "school_full_name": "University of Wisconsin–Madison", "team": "Badgers", "city": "Madison", "state": "Wisconsin", "type": "State", "conference": "Big Ten Conference", "distance": 1181.1431510151569, "address": "Albuquerque, NM", "lng": -106.6509851, "lat": 35.0841034 }, "geometry": { "type": "Point", "coordinates": [ -106.6509851, 35.0841034 ] } },
{ "type": "Feature", "properties": { "seed": 1.0, "school_common_name": "Ohio State", "site": "Cleveland, OH", "year": 2011.0, "id": 2011128, "school_full_name": "The Ohio State University", "team": "Buckeyes", "city": "Columbus", "state": "Ohio", "type": "State", "conference": "Big Ten Conference", "distance": 124.7840846244833, "address": "Cleveland, OH", "lng": -81.6934446, "lat": 41.5051613 }, "geometry": { "type": "Point", "coordinates": [ -81.6934446, 41.5051613 ] } },
{ "type": "Feature", "properties": { "seed": 1.0, "school_common_name": "Pittsburgh", "site": "Washington, DC", "year": 2011.0, "id": 2011129, "school_full_name": "University of Pittsburgh", "team": "Panthers", "city": "Pittsburgh", "state": "Pennsylvania", "type": "State-related", "conference": "Atlantic Coast Conference", "distance": 205.76402861387496, "address": "Washington, DC", "lng": -77.0365529, "lat": 38.8948932 }, "geometry": { "type": "Point", "coordinates": [ -77.0365529, 38.894893200000013 ] } },
{ "type": "Feature", "properties": { "seed": 1.0, "school_common_name": "Kansas", "site": "Tulsa, OK", "year": 2011.0, "id": 2011130, "school_full_name": "University of Kansas", "team": "Jayhawks", "city": "Lawrence", "state": "Kansas", "type": "State", "conference": "Big 12 Conference", "distance": 180.22100371688072, "address": "Tulsa, OK", "lng": -95.9929113, "lat": 36.1556805 }, "geometry": { "type": "Point", "coordinates": [ -95.9929113, 36.1556805 ] } },
{ "type": "Feature", "properties": { "seed": 1.0, "school_common_name": "Duke", "site": "Charlotte, NC", "year": 2011.0, "id": 2011131, "school_full_name": "Duke University", "team": "Blue Devils", "city": "Durham", "state": "North Carolina", "type": "Private\/Non-sectarian", "conference": "Atlantic Coast Conference", "distance": 127.4226595727384, "address": "Charlotte, NC", "lng": -80.8431268, "lat": 35.2270869 }, "geometry": { "type": "Point", "coordinates": [ -80.8431268, 35.2270869 ] } },
{ "type": "Feature", "properties": { "seed": 2.0, "school_common_name": "North Carolina", "site": "Charlotte, NC", "year": 2011.0, "id": 2011132, "school_full_name": "University of North Carolina at Chapel Hill", "team": "Tar Heels", "city": "Chapel Hill", "state": "North Carolina", "type": "State", "conference": "Atlantic Coast Conference", "distance": 119.27341381584134, "address": "Charlotte, NC", "lng": -80.8431268, "lat": 35.2270869 }, "geometry": { "type": "Point", "coordinates": [ -80.8431268, 35.2270869 ] } },
{ "type": "Feature", "properties": { "seed": 2.0, "school_common_name": "Florida", "site": "Tampa, FL", "year": 2011.0, "id": 2011133, "school_full_name": "University of Florida", "team": "Gators", "city": "Gainesville", "state": "Florida", "type": "State", "conference": "Southeastern Conference", "distance": 104.95141991391948, "address": "Tampa, FL", "lng": -82.458444, "lat": 27.9477595 }, "geometry": { "type": "Point", "coordinates": [ -82.458444, 27.9477595 ] } },
{ "type": "Feature", "properties": { "seed": 2.0, "school_common_name": "Notre Dame", "site": "Chicago, IL", "year": 2011.0, "id": 2011134, "school_full_name": "University of Notre Dame", "team": "Fighting Irish", "city": "South Bend", "state": "Indiana", "type": "Private\/Catholic", "conference": "Atlantic Coast Conference", "distance": 86.805937627623052, "address": "Chicago, IL", "lng": -87.6244212, "lat": 41.8755616 }, "geometry": { "type": "Point", "coordinates": [ -87.6244212, 41.8755616 ] } },
{ "type": "Feature", "properties": { "seed": 2.0, "school_common_name": "San Diego State", "site": "Tucson, AZ", "year": 2011.0, "id": 2011135, "school_full_name": "San Diego State University", "team": "Aztecs", "city": "San Diego", "state": "California", "type": "State", "conference": "Mountain West Conference", "distance": 380.60448962016983, "address": "Tucson, AZ", "lng": -110.9748477, "lat": 32.2228765 }, "geometry": { "type": "Point", "coordinates": [ -110.9748477, 32.2228765 ] } },
{ "type": "Feature", "properties": { "seed": 3.0, "school_common_name": "Syracuse", "site": "Cleveland, OH", "year": 2011.0, "id": 2011136, "school_full_name": "Syracuse University", "team": "Orange", "city": "Syracuse", "state": "New York", "type": "Private\/Methodist", "conference": "Atlantic Coast Conference", "distance": 358.46100885411039, "address": "Cleveland, OH", "lng": -81.6934446, "lat": 41.5051613 }, "geometry": { "type": "Point", "coordinates": [ -81.6934446, 41.5051613 ] } },
{ "type": "Feature", "properties": { "seed": 3.0, "school_common_name": "BYU", "site": "Denver, CO", "year": 2011.0, "id": 2011137, "school_full_name": "Brigham Young University", "team": "Cougars", "city": "Provo", "state": "Utah", "type": "Private\/Latter-Day Saints", "conference": "West Coast Conference", "distance": 415.45816513090591, "address": "Denver, CO", "lng": -104.9848623, "lat": 39.7392364 }, "geometry": { "type": "Point", "coordinates": [ -104.9848623, 39.7392364 ] } },
{ "type": "Feature", "properties": { "seed": 3.0, "school_common_name": "Purdue", "site": "Chicago, IL", "year": 2011.0, "id": 2011138, "school_full_name": "Purdue University", "team": "Boilermakers", "city": "West Lafayette", "state": "Indiana", "type": "State", "conference": "Big Ten Conference", "distance": 99.725849750497702, "address": "Chicago, IL", "lng": -87.6244212, "lat": 41.8755616 }, "geometry": { "type": "Point", "coordinates": [ -87.6244212, 41.8755616 ] } },
{ "type": "Feature", "properties": { "seed": 3.0, "school_common_name": "UConn", "site": "Washington, DC", "year": 2011.0, "id": 2011139, "school_full_name": "University of Connecticut", "team": "Huskies", "city": "Storrs", "state": "Connecticut", "type": "State", "conference": "American Athletic Conference", "distance": 348.14182917391992, "address": "Washington, DC", "lng": -77.0365529, "lat": 38.8948932 }, "geometry": { "type": "Point", "coordinates": [ -77.0365529, 38.894893200000013 ] } },
{ "type": "Feature", "properties": { "seed": 4.0, "school_common_name": "Kentucky", "site": "Tampa, FL", "year": 2011.0, "id": 2011140, "school_full_name": "University of Kentucky", "team": "Wildcats", "city": "Lexington", "state": "Kentucky", "type": "State", "conference": "Southeastern Conference", "distance": 639.21158359227536, "address": "Tampa, FL", "lng": -82.458444, "lat": 27.9477595 }, "geometry": { "type": "Point", "coordinates": [ -82.458444, 27.9477595 ] } },
{ "type": "Feature", "properties": { "seed": 4.0, "school_common_name": "Wisconsin", "site": "Tucson, AZ", "year": 2011.0, "id": 2011141, "school_full_name": "University of Wisconsin–Madison", "team": "Badgers", "city": "Madison", "state": "Wisconsin", "type": "State", "conference": "Big Ten Conference", "distance": 1500.5034839240432, "address": "Tucson, AZ", "lng": -110.9748477, "lat": 32.2228765 }, "geometry": { "type": "Point", "coordinates": [ -110.9748477, 32.2228765 ] } },
{ "type": "Feature", "properties": { "seed": 4.0, "school_common_name": "Louisville", "site": "Denver, CO", "year": 2011.0, "id": 2011142, "school_full_name": "University of Louisville", "team": "Cardinals", "city": "Louisville", "state": "Kentucky", "type": "State", "conference": "Atlantic Coast Conference", "distance": 1198.7441419479846, "address": "Denver, CO", "lng": -104.9848623, "lat": 39.7392364 }, "geometry": { "type": "Point", "coordinates": [ -104.9848623, 39.7392364 ] } },
{ "type": "Feature", "properties": { "seed": 4.0, "school_common_name": "Texas", "site": "Tulsa, OK", "year": 2011.0, "id": 2011143, "school_full_name": "University of Texas at Austin", "team": "Longhorns", "city": "Austin", "state": "Texas", "type": "State", "conference": "Big 12 Conference", "distance": 380.58755347480786, "address": "Tulsa, OK", "lng": -95.9929113, "lat": 36.1556805 }, "geometry": { "type": "Point", "coordinates": [ -95.9929113, 36.1556805 ] } },
{ "type": "Feature", "properties": { "seed": 1.0, "school_common_name": "Duke", "site": "Jacksonville, FL", "year": 2010.0, "id": 2010144, "school_full_name": "Duke University", "team": "Blue Devils", "city": "Durham", "state": "North Carolina", "type": "Private\/Non-sectarian", "conference": "Atlantic Coast Conference", "distance": 390.49900942932982, "address": "Jacksonville, FL", "lng": -81.655651, "lat": 30.3321838 }, "geometry": { "type": "Point", "coordinates": [ -81.655651, 30.3321838 ] } },
{ "type": "Feature", "properties": { "seed": 1.0, "school_common_name": "Kentucky", "site": "New Orleans, LA", "year": 2010.0, "id": 2010145, "school_full_name": "University of Kentucky", "team": "Wildcats", "city": "Lexington", "state": "Kentucky", "type": "State", "conference": "Southeastern Conference", "distance": 609.61948728644018, "address": "New Orleans, LA", "lng": -90.0701156, "lat": 29.9499323 }, "geometry": { "type": "Point", "coordinates": [ -90.0701156, 29.9499323 ] } },
{ "type": "Feature", "properties": { "seed": 1.0, "school_common_name": "Kansas", "site": "Oklahoma City, OK", "year": 2010.0, "id": 2010146, "school_full_name": "University of Kansas", "team": "Jayhawks", "city": "Lawrence", "state": "Kansas", "type": "State", "conference": "Big 12 Conference", "distance": 258.46982045383209, "address": "Oklahoma City, OK", "lng": -97.5170536, "lat": 35.4729886 }, "geometry": { "type": "Point", "coordinates": [ -97.5170536, 35.4729886 ] } },
{ "type": "Feature", "properties": { "seed": 1.0, "school_common_name": "Syracuse", "site": "Buffalo, NY", "year": 2010.0, "id": 2010147, "school_full_name": "Syracuse University", "team": "Orange", "city": "Syracuse", "state": "New York", "type": "Private\/Methodist", "conference": "Atlantic Coast Conference", "distance": 170.86797746071821, "address": "Buffalo, NY", "lng": -78.8783922, "lat": 42.8867166 }, "geometry": { "type": "Point", "coordinates": [ -78.8783922, 42.8867166 ] } },
{ "type": "Feature", "properties": { "seed": 2.0, "school_common_name": "Villanova", "site": "Providence, RI", "year": 2010.0, "id": 2010148, "school_full_name": "Villanova University", "team": "Wildcats", "city": "Radnor Township", "state": "Pennsylvania", "type": "Private\/Catholic", "conference": "Big East Conference", "distance": 268.19777528669954, "address": "Providence, RI", "lng": -71.4128343, "lat": 41.8239891 }, "geometry": { "type": "Point", "coordinates": [ -71.4128343, 41.8239891 ] } },
{ "type": "Feature", "properties": { "seed": 2.0, "school_common_name": "West Virginia", "site": "Buffalo, NY", "year": 2010.0, "id": 2010149, "school_full_name": "West Virginia University", "team": "Mountaineers", "city": "Morgantown", "state": "West Virginia", "type": "State", "conference": "Big 12 Conference", "distance": 212.56408292213047, "address": "Buffalo, NY", "lng": -78.8783922, "lat": 42.8867166 }, "geometry": { "type": "Point", "coordinates": [ -78.8783922, 42.8867166 ] } },
{ "type": "Feature", "properties": { "seed": 2.0, "school_common_name": "Ohio State", "site": "Milwaukee, WI", "year": 2010.0, "id": 2010150, "school_full_name": "The Ohio State University", "team": "Buckeyes", "city": "Columbus", "state": "Ohio", "type": "State", "conference": "Big Ten Conference", "distance": 357.7087922958832, "address": "Milwaukee, WI", "lng": -87.922497, "lat": 43.0349931 }, "geometry": { "type": "Point", "coordinates": [ -87.922497, 43.0349931 ] } },
{ "type": "Feature", "properties": { "seed": 2.0, "school_common_name": "Kansas State", "site": "Oklahoma City, OK", "year": 2010.0, "id": 2010151, "school_full_name": "Kansas State University", "team": "Wildcats", "city": "Manhattan", "state": "Kansas", "type": "State", "conference": "Big 12 Conference", "distance": 239.24173747319512, "address": "Oklahoma City, OK", "lng": -97.5170536, "lat": 35.4729886 }, "geometry": { "type": "Point", "coordinates": [ -97.5170536, 35.4729886 ] } },
{ "type": "Feature", "properties": { "seed": 3.0, "school_common_name": "Baylor", "site": "New Orleans, LA", "year": 2010.0, "id": 2010152, "school_full_name": "Baylor University", "team": "Bears", "city": "Waco", "state": "Texas", "type": "Private\/Baptist", "conference": "Big 12 Conference", "distance": 448.71416339709054, "address": "New Orleans, LA", "lng": -90.0701156, "lat": 29.9499323 }, "geometry": { "type": "Point", "coordinates": [ -90.0701156, 29.9499323 ] } },
{ "type": "Feature", "properties": { "seed": 3.0, "school_common_name": "New Mexico", "site": "San Jose, CA", "year": 2010.0, "id": 2010153, "school_full_name": "University of New Mexico", "team": "Lobos", "city": "Albuquerque", "state": "New Mexico", "type": "State", "conference": "Mountain West Conference", "distance": 959.30276775487937, "address": "San Jose, CA", "lng": -121.8905833, "lat": 37.3361905 }, "geometry": { "type": "Point", "coordinates": [ -121.8905833, 37.3361905 ] } },
{ "type": "Feature", "properties": { "seed": 3.0, "school_common_name": "Georgetown", "site": "Providence, RI", "year": 2010.0, "id": 2010154, "school_full_name": "Georgetown University", "team": "Hoyas", "city": "Washington", "state": "District of Columbia", "type": "Private\/Catholic", "conference": "Big East Conference", "distance": 395.78085663333746, "address": "Providence, RI", "lng": -71.4128343, "lat": 41.8239891 }, "geometry": { "type": "Point", "coordinates": [ -71.4128343, 41.8239891 ] } },
{ "type": "Feature", "properties": { "seed": 3.0, "school_common_name": "Pittsburgh", "site": "Milwaukee, WI", "year": 2010.0, "id": 2010155, "school_full_name": "University of Pittsburgh", "team": "Panthers", "city": "Pittsburgh", "state": "Pennsylvania", "type": "State-related", "conference": "Atlantic Coast Conference", "distance": 520.26593286994432, "address": "Milwaukee, WI", "lng": -87.922497, "lat": 43.0349931 }, "geometry": { "type": "Point", "coordinates": [ -87.922497, 43.0349931 ] } },
{ "type": "Feature", "properties": { "seed": 4.0, "school_common_name": "Purdue", "site": "Spokane, WA", "year": 2010.0, "id": 2010156, "school_full_name": "Purdue University", "team": "Boilermakers", "city": "West Lafayette", "state": "Indiana", "type": "State", "conference": "Big Ten Conference", "distance": 1947.8982754024487, "address": "Spokane, WA", "lng": -117.4212265, "lat": 47.6579425 }, "geometry": { "type": "Point", "coordinates": [ -117.4212265, 47.6579425 ] } },
{ "type": "Feature", "properties": { "seed": 4.0, "school_common_name": "Wisconsin", "site": "Jacksonville, FL", "year": 2010.0, "id": 2010157, "school_full_name": "University of Wisconsin–Madison", "team": "Badgers", "city": "Madison", "state": "Wisconsin", "type": "State", "conference": "Big Ten Conference", "distance": 926.71298796458314, "address": "Jacksonville, FL", "lng": -81.655651, "lat": 30.3321838 }, "geometry": { "type": "Point", "coordinates": [ -81.655651, 30.3321838 ] } },
{ "type": "Feature", "properties": { "seed": 4.0, "school_common_name": "Maryland", "site": "Spokane, WA", "year": 2010.0, "id": 2010158, "school_full_name": "University of Maryland, College Park", "team": "Terrapins", "city": "College Park", "state": "Maryland", "type": "State", "conference": "Big Ten Conference", "distance": 2572.5565520898599, "address": "Spokane, WA", "lng": -117.4212265, "lat": 47.6579425 }, "geometry": { "type": "Point", "coordinates": [ -117.4212265, 47.6579425 ] } },
{ "type": "Feature", "properties": { "seed": 4.0, "school_common_name": "Vanderbilt", "site": "San Jose, CA", "year": 2010.0, "id": 2010159, "school_full_name": "Vanderbilt University", "team": "Commodores", "city": "Nashville", "state": "Tennessee", "type": "Private\/Non-Sectarian", "conference": "Southeastern Conference", "distance": 2181.9775687679094, "address": "San Jose, CA", "lng": -121.8905833, "lat": 37.3361905 }, "geometry": { "type": "Point", "coordinates": [ -121.8905833, 37.3361905 ] } },
{ "type": "Feature", "properties": { "seed": 1.0, "school_common_name": "Syracuse", "site": "Buffalo, NY", "year": 2009.0, "id": 2009160, "school_full_name": "Syracuse University", "team": "Orange", "city": "Syracuse", "state": "New York", "type": "Private\/Methodist", "conference": "Atlantic Coast Conference", "distance": 170.86797746071821, "address": "Buffalo, NY", "lng": -78.8783922, "lat": 42.8867166 }, "geometry": { "type": "Point", "coordinates": [ -78.8783922, 42.8867166 ] } },
{ "type": "Feature", "properties": { "seed": 1.0, "school_common_name": "Pittsburgh", "site": "Dayton, OH", "year": 2009.0, "id": 2009161, "school_full_name": "University of Pittsburgh", "team": "Panthers", "city": "Pittsburgh", "state": "Pennsylvania", "type": "State-related", "conference": "Atlantic Coast Conference", "distance": 266.27193963120391, "address": "Dayton, OH", "lng": -84.1916069, "lat": 39.7589478 }, "geometry": { "type": "Point", "coordinates": [ -84.1916069, 39.758947799999987 ] } },
{ "type": "Feature", "properties": { "seed": 1.0, "school_common_name": "North Carolina", "site": "Greensboro, NC", "year": 2009.0, "id": 2009162, "school_full_name": "University of North Carolina at Chapel Hill", "team": "Tar Heels", "city": "Chapel Hill", "state": "North Carolina", "type": "State", "conference": "Atlantic Coast Conference", "distance": 47.412098586848842, "address": "Greensboro, NC", "lng": -79.7919754, "lat": 36.0726355 }, "geometry": { "type": "Point", "coordinates": [ -79.791975400000013, 36.0726355 ] } },
{ "type": "Feature", "properties": { "seed": 1.0, "school_common_name": "UConn", "site": "Philadelphia, PA", "year": 2009.0, "id": 2009163, "school_full_name": "University of Connecticut", "team": "Huskies", "city": "Storrs", "state": "Connecticut", "type": "State", "conference": "American Athletic Conference", "distance": 214.5716402135709, "address": "Philadelphia, PA", "lng": -75.1635262, "lat": 39.9527237 }, "geometry": { "type": "Point", "coordinates": [ -75.1635262, 39.9527237 ] } },
{ "type": "Feature", "properties": { "seed": 2.0, "school_common_name": "Kansas State", "site": "Oklahoma City, OK", "year": 2009.0, "id": 2009164, "school_full_name": "Kansas State University", "team": "Wildcats", "city": "Manhattan", "state": "Kansas", "type": "State", "conference": "Big 12 Conference", "distance": 239.24173747319512, "address": "Oklahoma City, OK", "lng": -97.5170536, "lat": 35.4729886 }, "geometry": { "type": "Point", "coordinates": [ -97.5170536, 35.4729886 ] } },
{ "type": "Feature", "properties": { "seed": 2.0, "school_common_name": "Duke", "site": "Greensboro, NC", "year": 2009.0, "id": 2009165, "school_full_name": "Duke University", "team": "Blue Devils", "city": "Durham", "state": "North Carolina", "type": "Private\/Non-sectarian", "conference": "Atlantic Coast Conference", "distance": 52.879952950645645, "address": "Greensboro, NC", "lng": -79.7919754, "lat": 36.0726355 }, "geometry": { "type": "Point", "coordinates": [ -79.791975400000013, 36.0726355 ] } },
{ "type": "Feature", "properties": { "seed": 2.0, "school_common_name": "Oklahoma", "site": "Kansas City, MO", "year": 2009.0, "id": 2009166, "school_full_name": "University of Oklahoma", "team": "Sooners", "city": "Norman", "state": "Oklahoma", "type": "State", "conference": "Big 12 Conference", "distance": 301.06126399665311, "address": "Kansas City, MO", "lng": -94.5781416, "lat": 39.100105 }, "geometry": { "type": "Point", "coordinates": [ -94.5781416, 39.100105 ] } },
{ "type": "Feature", "properties": { "seed": 2.0, "school_common_name": "Memphis", "site": "Kansas City, MO", "year": 2009.0, "id": 2009167, "school_full_name": "University of Memphis", "team": "Tigers", "city": "Memphis", "state": "Tennessee", "type": "State", "conference": "American Athletic Conference", "distance": 380.02236463114104, "address": "Kansas City, MO", "lng": -94.5781416, "lat": 39.100105 }, "geometry": { "type": "Point", "coordinates": [ -94.5781416, 39.100105 ] } },
{ "type": "Feature", "properties": { "seed": 3.0, "school_common_name": "Pittsburgh", "site": "Milwaukee, WI", "year": 2009.0, "id": 2009168, "school_full_name": "University of Pittsburgh", "team": "Panthers", "city": "Pittsburgh", "state": "Pennsylvania", "type": "State-related", "conference": "Atlantic Coast Conference", "distance": 520.26593286994432, "address": "Milwaukee, WI", "lng": -87.922497, "lat": 43.0349931 }, "geometry": { "type": "Point", "coordinates": [ -87.922497, 43.0349931 ] } },
{ "type": "Feature", "properties": { "seed": 3.0, "school_common_name": "Villanova", "site": "Philadelphia, PA", "year": 2009.0, "id": 2009169, "school_full_name": "Villanova University", "team": "Wildcats", "city": "Radnor Township", "state": "Pennsylvania", "type": "Private\/Catholic", "conference": "Big East Conference", "distance": 12.131190868669888, "address": "Philadelphia, PA", "lng": -75.1635262, "lat": 39.9527237 }, "geometry": { "type": "Point", "coordinates": [ -75.1635262, 39.9527237 ] } },
{ "type": "Feature", "properties": { "seed": 3.0, "school_common_name": "Syracuse", "site": "Miami, FL", "year": 2009.0, "id": 2009170, "school_full_name": "Syracuse University", "team": "Orange", "city": "Syracuse", "state": "New York", "type": "Private\/Methodist", "conference": "Atlantic Coast Conference", "distance": 1102.2432270466363, "address": "Miami, FL", "lng": -80.1936589, "lat": 25.7742658 }, "geometry": { "type": "Point", "coordinates": [ -80.1936589, 25.7742658 ] } },
{ "type": "Feature", "properties": { "seed": 3.0, "school_common_name": "Missouri", "site": "Boise, ID", "year": 2009.0, "id": 2009171, "school_full_name": "University of Missouri", "team": "Tigers", "city": "Columbia", "state": "Missouri", "type": "State", "conference": "Southeastern Conference", "distance": 1511.8495066209232, "address": "Boise, ID", "lng": -116.200886, "lat": 43.6166163 }, "geometry": { "type": "Point", "coordinates": [ -116.200886, 43.6166163 ] } },
{ "type": "Feature", "properties": { "seed": 4.0, "school_common_name": "Vanderbilt", "site": "San Jose, CA", "year": 2009.0, "id": 2009172, "school_full_name": "Vanderbilt University", "team": "Commodores", "city": "Nashville", "state": "Tennessee", "type": "Private\/Non-Sectarian", "conference": "Southeastern Conference", "distance": 2181.9775687679094, "address": "San Jose, CA", "lng": -121.8905833, "lat": 37.3361905 }, "geometry": { "type": "Point", "coordinates": [ -121.8905833, 37.3361905 ] } },
{ "type": "Feature", "properties": { "seed": 4.0, "school_common_name": "Xavier", "site": "Boise, ID", "year": 2009.0, "id": 2009173, "school_full_name": "Xavier University", "team": "Musketeers", "city": "Cincinnati", "state": "Ohio", "type": "Private\/Catholic", "conference": "Big East Conference", "distance": 1991.4672453717096, "address": "Boise, ID", "lng": -116.200886, "lat": 43.6166163 }, "geometry": { "type": "Point", "coordinates": [ -116.200886, 43.6166163 ] } },
{ "type": "Feature", "properties": { "seed": 4.0, "school_common_name": "Gonzaga", "site": "Portland, OR", "year": 2009.0, "id": 2009174, "school_full_name": "Gonzaga University", "team": "Bulldogs", "city": "Spokane", "state": "Washington", "type": "Private\/Catholic", "conference": "West Coast Conference", "distance": 353.72512934758299, "address": "Portland, OR", "lng": -122.6741949, "lat": 45.5202471 }, "geometry": { "type": "Point", "coordinates": [ -122.6741949, 45.5202471 ] } },
{ "type": "Feature", "properties": { "seed": 4.0, "school_common_name": "Washington", "site": "Portland, OR", "year": 2009.0, "id": 2009175, "school_full_name": "University of Washington", "team": "Huskies", "city": "Seattle", "state": "Washington", "type": "State", "conference": "Pac-12 Conference", "distance": 134.57213746932086, "address": "Portland, OR", "lng": -122.6741949, "lat": 45.5202471 }, "geometry": { "type": "Point", "coordinates": [ -122.6741949, 45.5202471 ] } },
{ "type": "Feature", "properties": { "seed": 1.0, "school_common_name": "North Carolina", "site": "Raleigh, NC", "year": 2008.0, "id": 2008176, "school_full_name": "University of North Carolina at Chapel Hill", "team": "Tar Heels", "city": "Chapel Hill", "state": "North Carolina", "type": "State", "conference": "Atlantic Coast Conference", "distance": 26.55305978252759, "address": "Raleigh, NC", "lng": -78.6390989, "lat": 35.7803977 }, "geometry": { "type": "Point", "coordinates": [ -78.6390989, 35.7803977 ] } },
{ "type": "Feature", "properties": { "seed": 1.0, "school_common_name": "Kansas", "site": "Omaha, NE", "year": 2008.0, "id": 2008177, "school_full_name": "University of Kansas", "team": "Jayhawks", "city": "Lawrence", "state": "Kansas", "type": "State", "conference": "Big 12 Conference", "distance": 149.29205440646493, "address": "Omaha, NE", "lng": -95.9383758, "lat": 41.2587459 }, "geometry": { "type": "Point", "coordinates": [ -95.938375799999989, 41.258745899999987 ] } },
{ "type": "Feature", "properties": { "seed": 1.0, "school_common_name": "Memphis", "site": "North Little Rock, AR", "year": 2008.0, "id": 2008178, "school_full_name": "University of Memphis", "team": "Tigers", "city": "Memphis", "state": "Tennessee", "type": "State", "conference": "American Athletic Conference", "distance": 146.42188608200573, "address": "North Little Rock, AR", "lng": -92.2670941, "lat": 34.769536 }, "geometry": { "type": "Point", "coordinates": [ -92.2670941, 34.769536 ] } },
{ "type": "Feature", "properties": { "seed": 1.0, "school_common_name": "UCLA", "site": "Anaheim, CA", "year": 2008.0, "id": 2008179, "school_full_name": "University of California, Los Angeles", "team": "Bruins", "city": "Los Angeles", "state": "California", "type": "State", "conference": "Pac-12 Conference", "distance": 36.343662362535142, "address": "Anaheim, CA", "lng": -117.911732, "lat": 33.8347516 }, "geometry": { "type": "Point", "coordinates": [ -117.911732, 33.8347516 ] } },
{ "type": "Feature", "properties": { "seed": 2.0, "school_common_name": "Tennessee", "site": "Birmingham, AL", "year": 2008.0, "id": 2008180, "school_full_name": "University of Tennessee", "team": "Volunteers", "city": "Knoxville", "state": "Tennessee", "type": "State", "conference": "Southeastern Conference", "distance": 233.86062455248691, "address": "Birmingham, AL", "lng": -86.8024326, "lat": 33.5206824 }, "geometry": { "type": "Point", "coordinates": [ -86.802432599999989, 33.5206824 ] } },
{ "type": "Feature", "properties": { "seed": 2.0, "school_common_name": "Georgetown", "site": "Raleigh, NC", "year": 2008.0, "id": 2008181, "school_full_name": "Georgetown University", "team": "Hoyas", "city": "Washington", "state": "District of Columbia", "type": "Private\/Catholic", "conference": "Big East Conference", "distance": 217.39757176635442, "address": "Raleigh, NC", "lng": -78.6390989, "lat": 35.7803977 }, "geometry": { "type": "Point", "coordinates": [ -78.6390989, 35.7803977 ] } },
{ "type": "Feature", "properties": { "seed": 2.0, "school_common_name": "Texas", "site": "North Little Rock, AR", "year": 2008.0, "id": 2008182, "school_full_name": "University of Texas at Austin", "team": "Longhorns", "city": "Austin", "state": "Texas", "type": "State", "conference": "Big 12 Conference", "distance": 439.39673654613318, "address": "North Little Rock, AR", "lng": -92.2670941, "lat": 34.769536 }, "geometry": { "type": "Point", "coordinates": [ -92.2670941, 34.769536 ] } },
{ "type": "Feature", "properties": { "seed": 2.0, "school_common_name": "Duke", "site": "Washington, DC", "year": 2008.0, "id": 2008183, "school_full_name": "Duke University", "team": "Blue Devils", "city": "Durham", "state": "North Carolina", "type": "Private\/Non-sectarian", "conference": "Atlantic Coast Conference", "distance": 215.46332357909441, "address": "Washington, DC", "lng": -77.0365529, "lat": 38.8948932 }, "geometry": { "type": "Point", "coordinates": [ -77.0365529, 38.894893200000013 ] } },
{ "type": "Feature", "properties": { "seed": 3.0, "school_common_name": "Louisville", "site": "Birmingham, AL", "year": 2008.0, "id": 2008184, "school_full_name": "University of Louisville", "team": "Cardinals", "city": "Louisville", "state": "Kentucky", "type": "State", "conference": "Atlantic Coast Conference", "distance": 299.00426820941789, "address": "Birmingham, AL", "lng": -86.8024326, "lat": 33.5206824 }, "geometry": { "type": "Point", "coordinates": [ -86.802432599999989, 33.5206824 ] } },
{ "type": "Feature", "properties": { "seed": 3.0, "school_common_name": "Wisconsin", "site": "Omaha, NE", "year": 2008.0, "id": 2008185, "school_full_name": "University of Wisconsin–Madison", "team": "Badgers", "city": "Madison", "state": "Wisconsin", "type": "State", "conference": "Big Ten Conference", "distance": 421.31960328667168, "address": "Omaha, NE", "lng": -95.9383758, "lat": 41.2587459 }, "geometry": { "type": "Point", "coordinates": [ -95.938375799999989, 41.258745899999987 ] } },
{ "type": "Feature", "properties": { "seed": 3.0, "school_common_name": "Stanford", "site": "Anaheim, CA", "year": 2008.0, "id": 2008186, "school_full_name": "Stanford University", "team": "Cardinal", "city": "Palo Alto", "state": "California", "type": "Private\/Non-Sectarian", "conference": "Pac-12 Conference", "distance": 346.38858338277481, "address": "Anaheim, CA", "lng": -117.911732, "lat": 33.8347516 }, "geometry": { "type": "Point", "coordinates": [ -117.911732, 33.8347516 ] } },
{ "type": "Feature", "properties": { "seed": 3.0, "school_common_name": "Xavier", "site": "Washington, DC", "year": 2008.0, "id": 2008187, "school_full_name": "Xavier University", "team": "Musketeers", "city": "Cincinnati", "state": "Ohio", "type": "Private\/Catholic", "conference": "Big East Conference", "distance": 462.31836404311963, "address": "Washington, DC", "lng": -77.0365529, "lat": 38.8948932 }, "geometry": { "type": "Point", "coordinates": [ -77.0365529, 38.894893200000013 ] } },
{ "type": "Feature", "properties": { "seed": 4.0, "school_common_name": "Washington State", "site": "Denver, CO", "year": 2008.0, "id": 2008188, "school_full_name": "Washington State University", "team": "Cougars", "city": "Pullman", "state": "Washington", "type": "State", "conference": "Pac-12 Conference", "distance": 871.8715609193747, "address": "Denver, CO", "lng": -104.9848623, "lat": 39.7392364 }, "geometry": { "type": "Point", "coordinates": [ -104.9848623, 39.7392364 ] } },
{ "type": "Feature", "properties": { "seed": 4.0, "school_common_name": "Vanderbilt", "site": "Tampa, FL", "year": 2008.0, "id": 2008189, "school_full_name": "Vanderbilt University", "team": "Commodores", "city": "Nashville", "state": "Tennessee", "type": "Private\/Non-Sectarian", "conference": "Southeastern Conference", "distance": 576.52227023734122, "address": "Tampa, FL", "lng": -82.458444, "lat": 27.9477595 }, "geometry": { "type": "Point", "coordinates": [ -82.458444, 27.9477595 ] } },
{ "type": "Feature", "properties": { "seed": 4.0, "school_common_name": "Pittsburgh", "site": "Denver, CO", "year": 2008.0, "id": 2008190, "school_full_name": "University of Pittsburgh", "team": "Panthers", "city": "Pittsburgh", "state": "Pennsylvania", "type": "State-related", "conference": "Atlantic Coast Conference", "distance": 1555.7706429141017, "address": "Denver, CO", "lng": -104.9848623, "lat": 39.7392364 }, "geometry": { "type": "Point", "coordinates": [ -104.9848623, 39.7392364 ] } },
{ "type": "Feature", "properties": { "seed": 4.0, "school_common_name": "UConn", "site": "Tampa, FL", "year": 2008.0, "id": 2008191, "school_full_name": "University of Connecticut", "team": "Huskies", "city": "Storrs", "state": "Connecticut", "type": "State", "conference": "American Athletic Conference", "distance": 1069.8671333403042, "address": "Tampa, FL", "lng": -82.458444, "lat": 27.9477595 }, "geometry": { "type": "Point", "coordinates": [ -82.458444, 27.9477595 ] } },
{ "type": "Feature", "properties": { "seed": 1.0, "school_common_name": "Kansas", "site": "Chicago, IL", "year": 2007.0, "id": 2007192, "school_full_name": "University of Kansas", "team": "Jayhawks", "city": "Lawrence", "state": "Kansas", "type": "State", "conference": "Big 12 Conference", "distance": 507.30483325212663, "address": "Chicago, IL", "lng": -87.6244212, "lat": 41.8755616 }, "geometry": { "type": "Point", "coordinates": [ -87.6244212, 41.8755616 ] } },
{ "type": "Feature", "properties": { "seed": 1.0, "school_common_name": "North Carolina", "site": "Winston-Salem, NC", "year": 2007.0, "id": 2007193, "school_full_name": "University of North Carolina at Chapel Hill", "team": "Tar Heels", "city": "Chapel Hill", "state": "North Carolina", "type": "State", "conference": "Atlantic Coast Conference", "distance": 75.329483123428247, "address": "Winston-Salem, NC", "lng": -80.2440518, "lat": 36.0998131 }, "geometry": { "type": "Point", "coordinates": [ -80.2440518, 36.0998131 ] } },
{ "type": "Feature", "properties": { "seed": 1.0, "school_common_name": "Florida", "site": "New Orleans, LA", "year": 2007.0, "id": 2007194, "school_full_name": "University of Florida", "team": "Gators", "city": "Gainesville", "state": "Florida", "type": "State", "conference": "Southeastern Conference", "distance": 480.27403307925294, "address": "New Orleans, LA", "lng": -90.0701156, "lat": 29.9499323 }, "geometry": { "type": "Point", "coordinates": [ -90.0701156, 29.9499323 ] } },
{ "type": "Feature", "properties": { "seed": 1.0, "school_common_name": "Florida", "site": "New Orleans, LA", "year": 2007.0, "id": 2007195, "school_full_name": "University of Florida", "team": "Gators", "city": "Gainesville", "state": "Florida", "type": "State", "conference": "Southeastern Conference", "distance": 480.27403307925294, "address": "New Orleans, LA", "lng": -90.0701156, "lat": 29.9499323 }, "geometry": { "type": "Point", "coordinates": [ -90.0701156, 29.9499323 ] } },
{ "type": "Feature", "properties": { "seed": 2.0, "school_common_name": "UCLA", "site": "Sacramento, CA", "year": 2007.0, "id": 2007196, "school_full_name": "University of California, Los Angeles", "team": "Bruins", "city": "Los Angeles", "state": "California", "type": "State", "conference": "Pac-12 Conference", "distance": 338.33070167805579, "address": "Sacramento, CA", "lng": -121.4943996, "lat": 38.5815719 }, "geometry": { "type": "Point", "coordinates": [ -121.4943996, 38.5815719 ] } },
{ "type": "Feature", "properties": { "seed": 2.0, "school_common_name": "Georgetown", "site": "Winston-Salem, NC", "year": 2007.0, "id": 2007197, "school_full_name": "Georgetown University", "team": "Hoyas", "city": "Washington", "state": "District of Columbia", "type": "Private\/Catholic", "conference": "Big East Conference", "distance": 263.21810382131025, "address": "Winston-Salem, NC", "lng": -80.2440518, "lat": 36.0998131 }, "geometry": { "type": "Point", "coordinates": [ -80.2440518, 36.0998131 ] } },
{ "type": "Feature", "properties": { "seed": 2.0, "school_common_name": "Wisconsin", "site": "Chicago, IL", "year": 2007.0, "id": 2007198, "school_full_name": "University of Wisconsin–Madison", "team": "Badgers", "city": "Madison", "state": "Wisconsin", "type": "State", "conference": "Big Ten Conference", "distance": 133.32302962246399, "address": "Chicago, IL", "lng": -87.6244212, "lat": 41.8755616 }, "geometry": { "type": "Point", "coordinates": [ -87.6244212, 41.8755616 ] } },
{ "type": "Feature", "properties": { "seed": 2.0, "school_common_name": "Wisconsin", "site": "Chicago, IL", "year": 2007.0, "id": 2007199, "school_full_name": "University of Wisconsin–Madison", "team": "Badgers", "city": "Madison", "state": "Wisconsin", "type": "State", "conference": "Big Ten Conference", "distance": 133.32302962246399, "address": "Chicago, IL", "lng": -87.6244212, "lat": 41.8755616 }, "geometry": { "type": "Point", "coordinates": [ -87.6244212, 41.8755616 ] } },
{ "type": "Feature", "properties": { "seed": 3.0, "school_common_name": "Pittsburgh", "site": "Buffalo, NY", "year": 2007.0, "id": 2007200, "school_full_name": "University of Pittsburgh", "team": "Panthers", "city": "Pittsburgh", "state": "Pennsylvania", "type": "State-related", "conference": "Atlantic Coast Conference", "distance": 166.0855637981592, "address": "Buffalo, NY", "lng": -78.8783922, "lat": 42.8867166 }, "geometry": { "type": "Point", "coordinates": [ -78.8783922, 42.8867166 ] } },
{ "type": "Feature", "properties": { "seed": 3.0, "school_common_name": "Washington State", "site": "Sacramento, CA", "year": 2007.0, "id": 2007201, "school_full_name": "Washington State University", "team": "Cougars", "city": "Pullman", "state": "Washington", "type": "State", "conference": "Pac-12 Conference", "distance": 574.24408945838695, "address": "Sacramento, CA", "lng": -121.4943996, "lat": 38.5815719 }, "geometry": { "type": "Point", "coordinates": [ -121.4943996, 38.5815719 ] } },
{ "type": "Feature", "properties": { "seed": 3.0, "school_common_name": "Oregon", "site": "Spokane, WA", "year": 2007.0, "id": 2007202, "school_full_name": "University of Oregon", "team": "Ducks", "city": "Eugene", "state": "Oregon", "type": "State", "conference": "Pac-12 Conference", "distance": 417.12373172967, "address": "Spokane, WA", "lng": -117.4212265, "lat": 47.6579425 },